names,timestamp,robbery,rashdriving,violence,kidnapping,murder,latitude,longitude
Shriram Sameeksha bangalore,05-03-2020 20:00,0,1,0,0,0,13.0721162,77.5348332
Sobha Chrysanthemum bangalore,28-02-2020 15:50,0,1,0,0,0,13.0601142,77.6368556
Fortuna Krrish bangalore,28-02-2020 13:30,0,0,0,1,0,13.0407862,77.6753256
CLPD Suncity Apartments bangalore,28-02-2020 19:00,0,0,1,0,0,12.9026338,77.7069423
Legacy Calista bangalore,01-03-2020 00:55,0,1,0,0,0,13.111337,77.5681996
Vasathi Avante bangalore,05-03-2020 06:15,0,1,0,0,0,13.0606229,77.6222783
Purva Venezia bangalore,05-03-2020 18:45,1,0,0,0,0,13.0972391,77.5702975
Raynal Gardens bangalore,28-02-2020 12:00,1,0,0,0,0,12.9767323,77.5148708
Zed Earth bangalore,01-03-2020 18:25,0,0,1,0,0,13.0054998,77.5782716
Adithya Tranquil bangalore,03-03-2020 14:00,0,0,1,0,0,13.1207272,77.6080072
Maysons Udbhava bangalore,28-02-2020 01:00,0,0,1,0,0,13.0877551,77.6038995
Gravity Sundridge bangalore,03-03-2020 23:10,0,1,0,0,0,13.1777165,77.5593515
The Central Regency Address bangalore,04-03-2020 18:30,0,0,1,0,0,12.9210342,77.6706402
DSMAX SAVERA bangalore,04-03-2020 20:00,0,0,1,0,0,12.9060634,77.5403467
Bijith Kripa bangalore,07-03-2020 20:40,1,0,0,0,0,13.257391,77.7088976
Shriram Blue bangalore,07-03-2020 17:00,0,0,1,0,0,13.0166354,77.7281167
Mahaveer Zephyr bangalore,28-02-2020 13:30,0,0,0,1,0,12.900891,77.6193205
AR Splendor Park bangalore,01-03-2020 17:20,0,1,0,0,0,13.042217,77.6552918
Sobha Habitech bangalore,28-02-2020 19:25,0,0,1,0,0,12.9828292,77.7552035
Chamundi Amber Woods bangalore,28-02-2020 19:50,0,0,1,0,0,12.8763746,77.5304509
Upkar Oakland bangalore,06-03-2020 17:25,0,0,1,0,0,12.7813035,77.7622283
MS Royal Sunnyvale bangalore,01-03-2020 15:20,0,0,0,1,0,12.7384134,77.7085666
NCN Crystal bangalore,07-03-2020 16:15,0,0,1,0,0,12.9750622,77.7588202
Manifest Elite bangalore,01-03-2020 22:30,1,0,0,0,0,12.9715987,77.5945627
Shriram Chirping Woods Villament bangalore,05-03-2020 07:30,0,1,0,0,0,12.9090034,77.6688901
Orchid Whitefield bangalore,28-02-2020 19:45,1,0,0,0,0,12.9643023,77.7575018
Niranjan Genesis bangalore,28-02-2020 14:15,0,0,1,0,0,12.8650822,77.6232727
Gopalan Lake Front bangalore,01-03-2020 16:05,0,0,0,1,0,12.8377608,77.6764512
Saranya Soham bangalore,01-03-2020 22:20,0,0,1,0,0,12.9492971,77.7166496
DSMAX SAVERA bangalore,04-03-2020 17:00,0,0,0,0,1,12.9060634,77.5403467
Assetz Marq bangalore,07-03-2020 18:00,0,0,1,0,0,13.0244172,77.7619875
Shriram Blue bangalore,05-03-2020 22:00,0,0,0,0,1,13.0166354,77.7281167
Trillium Apartment bangalore,07-03-2020 13:35,0,0,0,1,0,12.867074,77.690808
SNN Raj Lakeview bangalore,01-03-2020 15:20,0,0,1,0,0,12.9039732,77.6083714
Prestige Lakeside Habitat bangalore,28-02-2020 00:00,1,0,0,0,0,12.9299576,77.7401083
Purva Whitehall bangalore,01-03-2020 15:30,0,0,0,1,0,12.9170738,77.6722151
Skanda Nirvana bangalore,28-02-2020 19:30,0,1,0,0,0,12.9340795,77.7059496
LGCL Happy Days bangalore,28-02-2020 03:30,0,0,1,0,0,13.0764068,77.6659443
Yuva Eka bangalore,05-03-2020 10:00,0,1,0,0,0,12.8759951,77.6421833
Sowparnika Flamenco bangalore,03-03-2020 19:45,1,0,0,0,0,12.8550179,77.7850851
Elegant Pride bangalore,01-03-2020 15:20,1,0,0,0,0,13.0012678,77.6225051
Brigade Buena Vista Phase II bangalore,01-03-2020 17:30,0,1,0,0,0,13.0639183,77.7397329
Niranjan Genesis bangalore,03-03-2020 16:00,1,0,0,0,0,12.8650822,77.6232727
Axis Vedam bangalore,05-03-2020 18:15,0,0,1,0,0,12.8803091,77.5839891
Aban Desire bangalore,28-02-2020 17:00,0,0,0,1,0,12.8281273,77.7766475
Anand Somu Pristine bangalore,28-02-2020 20:30,0,0,1,0,0,12.8588873,77.5667669
Century Central bangalore,05-03-2020 07:30,0,1,0,0,0,12.8917718,77.565457
Ramky One North bangalore,03-03-2020 16:10,0,1,0,0,0,13.1361505,77.5706196
URI Shirdi Sri Sai Nagar bangalore,01-03-2020 18:25,0,0,1,0,0,12.9714651,77.540545
Sipani Wattle Grove bangalore,28-02-2020 08:40,0,1,0,0,0,12.940446,77.623403
Sunil Orchid bangalore,06-03-2020 15:20,0,1,0,0,0,12.9715987,77.5945627
Sobha Dream Gardens bangalore,03-03-2020 11:20,0,1,0,0,0,13.0968857,77.647408
DSMax Star Nest bangalore,03-03-2020 16:00,1,0,0,0,0,12.9238214,77.4766588
Kritan Iris bangalore,28-02-2020 15:00,0,0,1,0,0,12.8361701,77.6966127
LVS Gardenia Phase 1 bangalore,05-03-2020 03:30,0,0,1,0,0,13.0345318,77.7024472
DS Max Sankalp Manor bangalore,07-03-2020 10:35,0,1,0,0,0,13.0396616,77.6726014
Prestige Gulmohar bangalore,28-02-2020 15:50,0,0,1,0,0,13.0288528,77.6649757
Sowmya Shailam bangalore,05-03-2020 19:10,1,0,0,0,0,12.9437506,77.5737599
Sipani Jardin bangalore,07-03-2020 18:05,1,0,0,0,0,12.7780888,77.7296121
Jeevan Pristine bangalore,07-03-2020 16:00,0,1,0,0,0,12.9715987,77.5945627
Aratt Amora bangalore,05-03-2020 18:15,0,0,1,0,0,12.7587473,77.6711502
Sobha Avenue bangalore,07-03-2020 10:35,0,1,0,0,0,13.0287887,77.7496788
KMB La Palazzo bangalore,03-03-2020 19:45,1,0,0,0,0,12.9196722,77.6659963
Kumar Princetown Royale bangalore,28-02-2020 14:25,0,0,1,0,0,13.0606714,77.5200615
Vaishnavi Gardenia bangalore,05-03-2020 14:00,0,1,0,0,0,13.0425402,77.5194121
Krishna Brighton bangalore,04-03-2020 22:00,0,0,1,0,0,13.1035207,77.5796734
Cleartile The Rare Earth Plots bangalore,03-03-2020 17:50,0,1,0,0,0,12.8784133,77.7097953
Rajarajeshwari Parasmani Regency   bangalore,05-03-2020 12:10,1,0,0,0,0,12.9404754,77.5813465
Bren Edgewaters bangalore,28-02-2020 11:55,0,1,0,0,0,12.9022215,77.6699666
G Corp Residences bangalore,07-03-2020 21:10,0,0,1,0,0,12.9303569,77.6365973
Goyal Alanoville bangalore,03-03-2020 19:45,1,0,0,0,0,13.0887141,77.6594168
Century Artizan Phase II bangalore,06-03-2020 10:10,0,0,1,0,0,13.129355,77.595041
Green City Eutopia bangalore,04-03-2020 20:00,0,0,1,0,0,12.9097565,77.6099162
Basava Pride bangalore,05-03-2020 14:55,1,0,0,0,0,13.01401,77.717031
Sobha City Casa Paradiso bangalore,03-03-2020 21:20,0,0,1,0,0,13.0761452,77.6406964
Salarpuria Sattva Kings Domain bangalore,04-03-2020 08:30,0,0,1,0,0,12.9918038,77.6607041
Dharanis Prakruthi Park bangalore,01-03-2020 19:50,0,0,0,1,0,12.8461858,77.8275989
Jain Heights East Parade bangalore,28-02-2020 11:00,0,0,1,0,0,12.9735006,77.6823713
Casagrand Royce bangalore,07-03-2020 17:00,0,0,1,0,0,13.0095427,77.7301136
Vajram Tiara bangalore,7/3/2020 17.28,0,0,1,0,0,13.1377116,77.5693818
Godrej United bangalore,01-03-2020 12:05,1,0,0,0,0,12.9943081,77.7044977
M1 Terra Alegria bangalore,28-02-2020 15:00,0,0,1,0,0,13.1042593,77.7748724
Puravankara Elita Promenade bangalore,01-03-2020 11:45,0,0,1,0,0,12.8505636,77.6019434
Brigade Panorama bangalore,01-03-2020 16:20,0,1,0,0,0,12.8870631,77.4537078
Saiven The Hamptons bangalore,04-03-2020 21:00,0,1,0,0,0,12.9105043,77.6516836
Salarpuria Sattva Divinity bangalore,28-02-2020 19:00,0,0,1,0,0,12.9403192,77.5252055
TG Lakevista bangalore,05-03-2020 15:40,0,1,0,0,0,12.8734735,77.6343724
Mahaveer Cygnet bangalore,01-03-2020 00:55,0,1,0,0,0,13.1024979,77.617163
Arvind Skylands bangalore,06-03-2020 14:30,0,1,0,0,0,13.0892362,77.6014
Orbis BVS Avenues bangalore,01-03-2020 15:35,0,1,0,0,0,12.9582656,77.7466265
Prestige Pine Wood bangalore,06-03-2020 11:30,0,1,0,0,0,12.9312272,77.6345867
Sri Amethyst bangalore,05-03-2020 20:00,0,1,0,0,0,13.0047047,77.7145949
Sobha Valley View bangalore,28-02-2020 17:00,0,1,0,0,0,12.9312341,77.5290558
Odion Rainbow Retreat bangalore,04-03-2020 19:05,0,1,0,0,0,12.8957846,77.6865903
Concorde Spring Meadows bangalore,28-02-2020 10:15,0,1,0,0,0,13.064828,77.5051758
Nava Vedantha bangalore,04-03-2020 23:05,0,0,1,0,0,13.0051219,77.6644468
Nambiar Bellezea bangalore,28-02-2020 21:45,0,0,1,0,0,12.8423459,77.727032
Hatha Coco Nest bangalore,03-03-2020 13:00,0,1,0,0,0,12.9452912,77.6788233
RR Signature bangalore,28-02-2020 19:00,0,0,1,0,0,13.0800374,77.6337759
Sona Grandeur bangalore,03-03-2020 03:15,0,1,0,0,0,12.8647018,77.5956349
Arna Meadows bangalore,28-02-2020 13:00,0,0,1,0,0,12.8627811,77.6030904
Kataria Builteck Residency bangalore,01-03-2020 20:45,0,0,1,0,0,12.8213574,77.6876728
Assetz 63 Degree East bangalore,28-02-2020 22:10,0,0,1,0,0,12.8853283,77.7047401
IDEB Springfields bangalore,01-03-2020 20:45,0,0,1,0,0,12.9181948,77.6695175
Sai Ashirwad Natures Nest bangalore,01-03-2020 16:05,0,0,0,1,0,12.835969,77.691623
Sobha Eternia bangalore,01-03-2020 16:40,1,0,0,0,0,12.9035751,77.6649043
Purva Vantage bangalore,28-02-2020 00:00,1,0,0,0,0,12.9064791,77.6450269
NBR Green Valley bangalore,03-03-2020 15:30,1,0,0,0,0,12.8162764,77.8628083
MS Royal Sunnyvale bangalore,28-02-2020 22:00,0,0,1,0,0,12.7384134,77.7085666
Splendid Lake Dews bangalore,01-03-2020 14:30,1,0,0,0,0,12.8700365,77.6272663
Bren Trillium bangalore,03-03-2020 17:40,0,1,0,0,0,12.8661314,77.6664154
DSMAX SKYCLASSIC bangalore,04-03-2020 21:30,0,1,0,0,0,12.8178837,77.6708954
Legacy Vivienda bangalore,04-03-2020 19:05,0,1,0,0,0,13.1857708,77.6603103
Ajmera Annex bangalore,28-02-2020 08:40,0,1,0,0,0,12.8420581,77.6463682
Krishna Arya Elegant bangalore,28-02-2020 14:15,0,0,1,0,0,13.0165757,77.5475265
Soma White House bangalore,28-02-2020 14:25,0,0,1,0,0,12.8753207,77.6355191
Prestige Song Of The South bangalore,28-02-2020 15:50,0,0,0,1,0,12.8620814,77.6137471
Vivansaa Aurigaa bangalore,28-02-2020 17:00,0,1,0,0,0,12.8937057,77.7681863
SJR Hamilton Homes bangalore,04-03-2020 22:00,0,0,1,0,0,12.8654578,77.6976643
Prestige Ferns Residency bangalore,05-03-2020 13:30,0,0,1,0,0,12.9029705,77.6622073
Evershine Greenwood bangalore,7/3/2020 16.42 ,0,0,1,0,0,12.8610024,77.7805416
Avani Gardens bangalore,28-02-2020 19:05,0,0,1,0,0,13.0860725,77.6064885
Embassy Lake Terraces bangalore,01-03-2020 12:00,1,0,0,0,0,13.0499669,77.5933108
Lotus Petals bangalore,04-03-2020 08:30,0,0,1,0,0,12.8572384,77.5989777
TooGoodHomes by Provident bangalore,28-02-2020 22:30,0,0,0,1,0,13.0831589,77.6194189
Frontier Heights bangalore,28-02-2020 22:00,0,0,1,0,0,12.9055155,77.6756456
Aratt Grand Town bangalore,01-03-2020 15:30,0,0,0,1,0,12.7401871,77.6791026
Salarpuria Sattva Gold Summit bangalore,03-03-2020 16:00,1,0,0,0,0,13.0666284,77.6523154
Millennia Lakeview bangalore,05-03-2020 19:30,0,0,0,1,0,12.8776976,77.6983835
SJR Vogue bangalore,03-03-2020 22:50,0,0,1,0,0,12.9815216,77.7176076
Habitat Eden Heights bangalore,07-03-2020 18:05,1,0,0,0,0,12.9904266,77.7142049
Platina Exotica bangalore,28-02-2020 03:30,0,0,1,0,0,12.9275441,77.4936815
DSMax Star Nest bangalore,07-03-2020 03:50,0,0,1,0,0,12.9238214,77.4766588
Opera Canopus bangalore,07-03-2020 03:50,0,0,1,0,0,12.8872949,77.6214482
Mana Tropicale bangalore,05-03-2020 19:45,1,0,0,0,0,12.8800875,77.6928716
Shriram Signia bangalore,28-02-2020 22:00,0,1,0,0,0,12.8391167,77.6563997
Valmark Cityville bangalore,28-02-2020 14:10,0,0,1,0,0,12.8626587,77.604309
Purva Vantage bangalore,05-03-2020 22:00,0,0,0,0,1,12.9064791,77.6450269
Hrvy Sai Sapphire bangalore,05-03-2020 19:05,1,0,0,0,0,12.8947372,77.5785716
Sruthika Springfields bangalore,28-02-2020 22:10,0,0,1,0,0,13.0776893,77.5385716
Brigade Meadows Plumeria bangalore,05-03-2020 12:10,1,0,0,0,0,12.8134935,77.5117193
Ahad Excellencia bangalore,04-03-2020 23:05,0,0,1,0,0,12.8825179,77.6905147
Sterling Villa Grande Phase 2 bangalore,01-03-2020 14:30,1,0,0,0,0,13.011181,77.7597398
Gopalan Olympia bangalore,07-03-2020 12:50,1,0,0,0,0,12.8753163,77.4501207
Mantri Espana bangalore,28-02-2020 19:00,0,0,1,0,0,12.9344706,77.6835063
Krish Eirianwen bangalore,07-03-2020 19:05,0,1,0,0,0,13.0183013,77.7252647
Aditya Palm Grove bangalore,01-03-2020 12:00,1,0,0,0,0,12.9665264,77.6139089
A Peace Paramount bangalore,28-02-2020 15:00,0,0,1,0,0,13.1141821,77.5666558
Shri Balaji Ocean bangalore,01-03-2020 01:45,1,0,0,0,0,12.839761,77.7256322
Sobha Iris bangalore,06-03-2020 14:30,0,1,0,0,0,12.9328719,77.6846695
Vasundra Krishnashreya bangalore,05-03-2020 21:40,0,1,0,0,0,12.9797094,77.4993114
The Presidential Tower bangalore,01-03-2020 18:35,1,0,0,0,0,13.0265663,77.5451712
Adithya Garden  bangalore,04-03-2020 21:00,0,1,0,0,0,12.8645579,77.6594665
Brigade Buena Vista Phase I bangalore,05-03-2020 19:45,1,0,0,0,0,13.0639183,77.7397329
Sobha Tulip bangalore,28-02-2020 18:00,0,1,0,0,0,12.8984206,77.5855194
Aratt Cityscapes Villa bangalore,07-03-2020 12:50,1,0,0,0,0,13.0611983,77.757579
Srimitra Lifestyle bangalore,28-02-2020 03:30,0,0,1,0,0,13.0305625,77.668072
Gajanana Sumuk bangalore,28-02-2020 15:50,1,0,0,0,0,12.9917127,77.7185076
Bren Northern Lights bangalore,05-03-2020 06:15,0,1,0,0,0,13.094024,77.6091061
Svamitva Emerald Square bangalore,05-03-2020 00:45,0,0,1,0,0,12.8146987,77.6701237
Soni Tranquil bangalore,05-03-2020 03:30,0,0,1,0,0,12.9001488,77.5926141
Keerthi Krishna Viva bangalore,01-03-2020 14:30,1,0,0,0,0,12.9106527,77.6840375
Habitat Iluminar bangalore,01-03-2020 15:35,0,1,0,0,0,12.9155329,77.4933195
Bren Palms bangalore,07-03-2020 16:15,0,0,1,0,0,12.8911424,77.6447601
Columbia Belleza bangalore,03-03-2020 23:10,0,1,0,0,0,12.8711086,77.5780753
Akshaya Regalia bangalore,01-03-2020 15:15,0,0,0,1,0,12.897131,77.5264058
Brigade Orchards Luxury Apartments bangalore,05-03-2020 10:00,0,1,0,0,0,13.230003,77.7236208
Arvind Oasis bangalore,28-02-2020 14:25,0,0,1,0,0,13.046621,77.502508
SNN Raj GreenBay bangalore,07-03-2020 12:20,0,1,0,0,0,12.852932,77.678469
Legacy Salvador bangalore,28-02-2020 03:00,0,0,1,0,0,13.1201364,77.581033
Maarq Vista bangalore,01-03-2020 11:45,0,0,1,0,0,13.410396,77.7150976
SK Daisy bangalore,04-03-2020 22:00,0,0,1,0,0,12.832197,77.648919
The Lake View Address bangalore,04-03-2020 21:00,0,1,0,0,0,12.833466,77.669921
Kritan Iris bangalore,28-02-2020 22:00,0,0,1,0,0,12.8361701,77.6966127
Yuva Eka bangalore,28-02-2020 03:30,0,0,1,0,0,12.8759951,77.6421833
Assetz East Point bangalore,28-02-2020 19:00,0,0,1,0,0,12.9212968,77.6945395
Brigade Buena Vista Phase II bangalore,28-02-2020 21:15,1,0,0,0,0,13.0639183,77.7397329
Anand Somu Pristine bangalore,05-03-2020 23:10,0,1,0,0,0,12.8588873,77.5667669
Pavilion Villas at Brigade Orchards bangalore,28-02-2020 12:00,1,0,0,0,0,13.237063,77.72428
Basava Pride bangalore,04-03-2020 21:00,0,1,0,0,0,13.01401,77.717031
Mahaveer Riviera bangalore,01-03-2020 22:35,0,1,0,0,0,12.8930968,77.5883631
VSR Rejoice bangalore,07-03-2020 18:00,0,0,1,0,0,12.9715987,77.5945627
S2 Homes The Water Grove bangalore,07-03-2020 19:05,0,1,0,0,0,12.8368015,77.6871048
Saiven Siesta bangalore,01-03-2020 15:25,0,1,0,0,0,12.8888172,77.7683326
Bren Northern Lights bangalore,28-02-2020 14:25,0,0,1,0,0,13.094024,77.6091061
Dharma Elite bangalore,07-03-2020 13:35,0,0,0,1,0,13.0103618,77.6520469
V Venture Essence bangalore,01-03-2020 20:45,0,0,1,0,0,12.8921457,77.5902232
SJR Residency bangalore,28-02-2020 19:05,0,0,1,0,0,12.9276275,77.6891907
Pyramid Carnations bangalore,28-02-2020 21:15,1,0,0,0,0,13.1351114,77.5622471
RJR Patel Residency bangalore,04-03-2020 14:30,0,1,0,0,0,12.93844,77.7431417
Peram's Eco City bangalore,28-02-2020 23:50,0,0,1,0,0,13.130345,77.8254697
Uber Verdant bangalore,01-03-2020 15:30,0,0,0,1,0,12.906937,77.699942
Mantri Webcity bangalore,07-03-2020 21:05,0,0,1,0,0,13.0735045,77.6511247
Embassy Pristine bangalore,01-03-2020 17:20,0,1,0,0,0,12.9280203,77.6609868
Century Saras bangalore,07-03-2020 16:15,0,0,1,0,0,13.1128005,77.5701013
Sobha Valley View bangalore,05-03-2020 13:15,0,0,1,0,0,12.9312341,77.5290558
Rohan Iksha bangalore,05-03-2020 18:45,1,0,0,0,0,12.9266782,77.6990608
Brigade 7 Gardens bangalore,28-02-2020 19:30,0,1,0,0,0,12.895314,77.5302144
Chaitrashree Royale bangalore,03-03-2020 22:50,0,1,0,0,0,12.9389997,77.5180225
ARS Bhavisha bangalore,05-03-2020 10:00,0,1,0,0,0,12.8596605,77.7656243
Comfort Heights bangalore,28-02-2020 14:15,0,0,1,0,0,12.8874544,77.5537026
Reliaable Residenza bangalore,03-03-2020 13:40,0,1,0,0,0,12.8656562,77.690064
Relizant Royale bangalore,01-03-2020 14:30,1,0,0,0,0,12.957703,77.5758522
Bluejay Atmosphere bangalore,28-02-2020 15:40,0,0,1,0,0,13.026091,77.481328
DSR White Waters bangalore,28-02-2020 01:00,0,0,1,0,0,12.9167469,77.7168083
The Lake View Address bangalore,28-02-2020 20:00,0,0,1,0,0,12.833466,77.669921
Brigade Lakefront - Amber Block bangalore,03-03-2020 23:10,0,1,0,0,0,12.9789932,77.7113528
The Gran Carmen Address bangalore,01-03-2020 16:20,0,1,0,0,0,12.90064,77.711096
Brigade Parkside West bangalore,03-03-2020 00:15,0,0,1,0,0,12.9026133,77.7018458
Samruddhi Winter Green bangalore,05-03-2020 19:30,1,0,0,0,0,12.9389418,77.7129508
Damden Vivo bangalore,05-03-2020 22:20,0,1,0,0,0,12.8001258,77.7830215
Kolte Patil 24K Grazio bangalore,28-02-2020 21:45,0,0,1,0,0,12.9246763,77.6308584
Vaishnavi Gardenia bangalore,04-03-2020 09:00,0,0,1,0,0,13.0425402,77.5194121
Jains Aashraya bangalore,01-03-2020 16:40,1,0,0,0,0,12.8436657,77.5877827
Ma Sarada Casa Estrella bangalore,28-02-2020 08:00,0,0,0,1,0,12.7964534,77.6864041
Fortuna Acacia bangalore,03-03-2020 20:05,1,0,0,0,0,13.0698679,77.5869958
Mahindra Lifespace Windchimes bangalore,01-03-2020 15:15,0,0,0,1,0,12.88624,77.597681
Northern Destiny bangalore,07-03-2020 13:00,0,0,1,0,0,13.1000006,77.6337199
Fire Luxur The Empyrean Phase II bangalore,01-03-2020 01:45,1,0,0,0,0,12.9048299,77.8677685
Svamitva Sylvia CIty bangalore,03-03-2020 13:00,0,1,0,0,0,13.0530435,77.7619136
Sobha Silicon Oasis bangalore,05-03-2020 20:00,0,1,0,0,0,12.867993,77.6612248
Century Infiniti bangalore,03-03-2020 16:10,0,1,0,0,0,12.8975268,77.6772502
KVG Grandeur bangalore,04-03-2020 13:40,0,1,0,0,0,13.0274574,77.6900306
Bren Trillium bangalore,04-03-2020 19:05,0,1,0,0,0,12.8661314,77.6664154
Pyramid Bilberry bangalore,05-03-2020 19:30,0,0,0,1,0,13.0873611,77.6247607
Vaswani Menlo Park bangalore,05-03-2020 13:15,0,0,1,0,0,12.9492007,77.717493
Pavilion Villas at Brigade Orchards bangalore,28-02-2020 15:50,0,0,1,0,0,13.237063,77.72428
SJR Vogue bangalore,07-03-2020 17:00,0,0,1,0,0,12.9815216,77.7176076
VRR Golden Enclave bangalore,01-03-2020 16:20,0,1,0,0,0,12.8236447,77.6529909
Godrej Eternity Life Plus bangalore,28-02-2020 00:00,1,0,0,0,0,12.8561767,77.5418038
Brigade Omega bangalore,04-03-2020 19:05,0,1,0,0,0,12.8938298,77.5294655
Shriram Signia bangalore,04-03-2020 23:05,0,0,1,0,0,12.8391167,77.6563997
Prestige Kensington Gardens bangalore,28-02-2020 14:15,0,0,1,0,0,13.051404,77.5369911
Slv Parkview bangalore,28-02-2020 22:10,0,0,1,0,0,13.0459165,77.5419656
Ambiience Aamby City bangalore,07-03-2020 12:50,1,0,0,0,0,13.1319198,77.8187924
Sowmya Shailam bangalore,07-03-2020 18:00,0,0,1,0,0,12.9437506,77.5737599
Park Cubix bangalore,03-03-2020 23:40,0,0,0,1,0,13.2418908,77.720995
Legacy Cirocco bangalore,28-02-2020 20:00,0,0,1,0,0,13.087229,77.596148
Salarpuria Sattva Misty Charm bangalore,04-03-2020 19:05,0,1,0,0,0,12.8638771,77.5432976
MV Vajra Value Plus bangalore,01-03-2020 12:00,1,0,0,0,0,12.879664,77.5523167
Sumadhura Eden Garden bangalore,28-02-2020 14:10,0,0,1,0,0,13.0283684,77.7506927
B&B Opulent Spire bangalore,06-03-2020 11:30,0,1,0,0,0,12.9216975,77.5997916
Sriven Luminous Amaltas bangalore,07-03-2020 00:35,0,0,1,0,0,12.8453334,77.6481115
Umiya Woods Apartment bangalore,01-03-2020 22:30,1,0,0,0,0,12.9752279,77.7452412
The Gran Carmen Address bangalore,05-03-2020 14:00,0,1,0,0,0,12.90064,77.711096
Arya Hamsa Grande bangalore,03-03-2020 20:40,0,1,0,0,0,12.8595081,77.574026
Vaishnavi Oasis bangalore,06-03-2020 11:30,0,1,0,0,0,12.8735596,77.5638325
Disha Courtyard bangalore,04-03-2020 08:00,0,1,0,0,0,12.974269,77.7568397
Rohan Jharoka bangalore,28-02-2020 08:40,0,1,0,0,0,12.9482601,77.6765682
Midtown Rhythm bangalore,07-03-2020 19:05,0,1,0,0,0,12.960095,77.741935
Elegant Pride bangalore,04-03-2020 21:00,0,1,0,0,0,13.0012678,77.6225051
Evershine Greenwood bangalore,04-03-2020 09:00,0,0,1,0,0,12.8610024,77.7805416
Aparna Elina bangalore,28-02-2020 14:25,0,0,1,0,0,13.0200021,77.5518105
Sobha Forest Edge bangalore,04-03-2020 19:05,0,1,0,0,0,12.8763618,77.5285878
Umiya Woods Apartment bangalore,28-02-2020 22:10,0,0,1,0,0,12.9752279,77.7452412
Fortuna Acacia bangalore,01-03-2020 20:45,0,0,1,0,0,13.0698679,77.5869958
Icon Laurels bangalore,01-03-2020 12:05,1,0,0,0,0,12.7998369,77.6793722
CMRS Mulberry Mist bangalore,05-03-2020 21:00,0,0,1,0,0,12.9450837,77.7524506
Adarsh Tranqville bangalore,05-03-2020 19:10,1,0,0,0,0,13.0779618,77.6533609
Ezzy Corinth bangalore,01-03-2020 18:35,1,0,0,0,0,13.0657555,77.6515444
Soni Tranquil bangalore,28-02-2020 01:00,0,0,1,0,0,12.9001488,77.5926141
Zonasha Elegance bangalore,05-03-2020 19:30,0,0,0,1,0,12.8988592,77.6682758
Unishire Spacio bangalore,06-03-2020 15:20,0,1,0,0,0,12.8849319,77.6048938
Bren Imperia bangalore,07-03-2020 16:00,0,1,0,0,0,12.9068814,77.671808
Salarpuria Sattva Gold Summit bangalore,01-03-2020 00:55,0,1,0,0,0,13.0666284,77.6523154
Samruddhi Winter Green bangalore,01-03-2020 20:45,0,0,1,0,0,12.9389418,77.7129508
Indio Classic bangalore,05-03-2020 22:00,0,0,0,0,1,12.9715987,77.5945627
Godrej Eternity bangalore,05-03-2020 23:00,0,0,1,0,0,12.8570477,77.5407321
Platina Exotica bangalore,06-03-2020 17:25,0,0,1,0,0,12.9275441,77.4936815
Suncrest Pebbles bangalore,03-03-2020 00:15,0,0,1,0,0,12.9364507,77.7274439
Sumadhura Eden Garden bangalore,04-03-2020 22:00,0,0,1,0,0,13.0283684,77.7506927
AR Splendor Park bangalore,05-03-2020 19:45,1,0,0,0,0,13.042217,77.6552918
SV Lakshmi Nivas bangalore,03-03-2020 16:00,1,0,0,0,0,13.0395202,77.6621751
SV Spring Woods bangalore,07-03-2020 19:55,0,0,0,1,0,12.8634456,77.532143
Pavilion Villas at Brigade Orchards bangalore,06-03-2020 13:45,0,1,0,0,0,13.237063,77.72428
Prabhavathi Divine bangalore,7/3/2020 17.28,0,0,1,0,0,12.8787211,77.6110659
Brigade Bricklane bangalore,01-03-2020 15:25,0,1,0,0,0,13.1003515,77.6320051
Soundarya Kamakshi bangalore,01-03-2020 16:40,1,0,0,0,0,12.9835136,77.5299315
Krishnaja Northcity bangalore,03-03-2020 16:00,1,0,0,0,0,13.2389421,77.7059788
Legacy Salvador bangalore,03-03-2020 17:50,0,1,0,0,0,13.1201364,77.581033
Incor Carmel Heights bangalore,06-03-2020 20:45,0,0,0,1,0,12.9608801,77.7477855
Brigade Lakefront Blue bangalore,28-02-2020 13:00,0,0,1,0,0,12.9789932,77.7113528
Shapoorji Pallonji ParkWest Mahogany bangalore,01-03-2020 17:30,0,1,0,0,0,12.963803,77.5610241
Sipani Bliss 1 bangalore,07-03-2020 12:20,0,1,0,0,0,12.7808199,77.7239959
Sumo Sonnet bangalore,03-03-2020 00:15,0,0,1,0,0,12.889868,77.6488791
Brigade Gardenia bangalore,04-03-2020 21:00,0,1,0,0,0,12.8879764,77.5781273
GM Infinite Elegance Tower bangalore,01-03-2020 18:25,0,0,1,0,0,12.9165545,77.6184368
Prestige Jade Pavillion bangalore,06-03-2020 10:10,0,0,1,0,0,12.9216881,77.6956648
SM Zinnia bangalore,06-03-2020 11:40,0,0,1,0,0,12.932482,77.7264103
Desai Grandeur bangalore,28-02-2020 19:50,0,0,1,0,0,12.976704,77.7584705
Banashree Arka Forest View bangalore,03-03-2020 20:05,0,0,1,0,0,12.7425352,77.6683509
IDEB Springfields bangalore,01-03-2020 22:20,0,0,1,0,0,12.9181948,77.6695175
Assetz Earth & Essence bangalore,04-03-2020 08:30,0,0,1,0,0,13.1480106,77.6416023
Advaitha Aksha bangalore,07-03-2020 12:10,0,1,0,0,0,12.9262427,77.6405757
Brigade Panorama bangalore,01-03-2020 18:25,0,0,1,0,0,12.8870631,77.4537078
Mahaveer Sitara bangalore,04-03-2020 21:00,0,1,0,0,0,12.8937,77.5866427
Prestige Deja Vu bangalore,28-02-2020 19:00,0,0,1,0,0,12.9957229,77.6079918
Sumukha Residency bangalore,01-03-2020 22:30,1,0,0,0,0,12.9607204,77.5943232
Shriram Blue bangalore,03-03-2020 04:10,0,0,1,0,0,13.0166354,77.7281167
Ds Max Sherwood bangalore,07-03-2020 00:35,0,0,1,0,0,12.9220588,77.7231568
Bhartiya City Leela Residences bangalore,06-03-2020 13:45,0,1,0,0,0,13.084283,77.642781
Klassik Landmark Phase 2 bangalore,05-03-2020 13:30,0,0,1,0,0,12.8956917,77.6775754
CMRS Mulberry Mist bangalore,03-03-2020 04:10,0,0,1,0,0,12.9450837,77.7524506
Bhartiya City bangalore,01-03-2020 14:20,1,0,0,0,0,13.0832763,77.6423729
Keya Homes The Green Terraces bangalore,03-03-2020 17:50,0,1,0,0,0,12.8220091,77.6563314
Sobha Marvella bangalore,07-03-2020 13:00,0,0,1,0,0,12.9267833,77.6726791
Saideep Hulas bangalore,28-02-2020 19:50,0,0,1,0,0,13.0416462,77.7436449
Deccan Habitat bangalore,28-02-2020 15:40,0,0,1,0,0,13.029479,77.545092
Sobha Lake Gardens bangalore,28-02-2020 10:15,0,1,0,0,0,13.0191276,77.7241543
Fortius Waterscape bangalore,05-03-2020 13:15,0,0,1,0,0,13.019696,77.721148
Vivansaa Aurigaa bangalore,03-01-2020 16:30,1,0,0,0,0,12.8937057,77.7681863
HW Archstone bangalore,03-03-2020 23:10,0,1,0,0,0,13.0290541,77.6302934
Provident Park Square Phase I bangalore,05-03-2020 18:45,1,0,0,0,0,12.8636392,77.5406447
Prestige Royal Garden 2 bangalore,01-03-2020 22:30,1,0,0,0,0,13.1395085,77.5706395
Unishire Verzure bangalore,28-02-2020 22:30,1,0,0,0,0,13.0756934,77.6173763
Disha Loharuka SOLARIS bangalore,28-02-2020 15:50,0,0,1,0,0,12.860781,77.5902906
Mahindra Lifespace Windchimes Phase II bangalore,06-03-2020 11:40,0,0,1,0,0,12.88624,77.597681
SJR Palazza City bangalore,01-03-2020 17:30,0,1,0,0,0,12.9046539,77.6984995
Pyramid Carnations bangalore,04-03-2020 09:00,0,0,1,0,0,13.1351114,77.5622471
DSMAX SKYCITY bangalore,28-02-2020 08:40,0,1,0,0,0,13.0810365,77.6343988
Sruthika Springfields bangalore,28-02-2020 11:55,0,1,0,0,0,13.0776893,77.5385716
Rand Pride Homes bangalore,07-03-2020 14:50,0,1,0,0,0,12.9780797,77.6929907
Mantri Centrium bangalore,07-03-2020 03:50,0,0,1,0,0,13.0040638,77.5618485
SK Daisy bangalore,04-03-2020 23:05,0,0,1,0,0,12.832197,77.648919
Shravanthi Oakridge bangalore,04-03-2020 19:05,0,1,0,0,0,12.8720988,77.5295509
Divya JSR Limelite bangalore,01-03-2020 16:05,0,0,0,1,0,13.0694591,77.530547
Yuva Eka bangalore,28-02-2020 11:55,0,1,0,0,0,12.8759951,77.6421833
Silverwood Regency bangalore,01-03-2020 17:20,0,1,0,0,0,12.9111022,77.6777582
GR Regent Park bangalore,28-02-2020 20:00,0,0,1,0,0,12.8551283,77.5936002
Mahendra Aarna bangalore,01-03-2020 22:20,0,0,1,0,0,12.8348265,77.6910718
Bren Palms bangalore,07-03-2020 10:35,0,1,0,0,0,12.8911424,77.6447601
Aratt Grand Town bangalore,28-02-2020 14:10,0,0,1,0,0,12.7401871,77.6791026
Jeevan Grandeur bangalore,01-03-2020 14:30,1,0,0,0,0,13.0053452,77.7482751
Garuda Royal Homes bangalore,28-02-2020 01:30,1,0,0,0,0,13.0151889,77.7057087
SNN Raj Serenity Phase II bangalore,05-03-2020 23:00,0,0,1,0,0,12.852932,77.678469
DSMAX STONESCAPE bangalore,07-03-2020 21:10,0,0,1,0,0,12.8518163,77.5573227
Zed Earth bangalore,06-03-2020 11:40,0,0,1,0,0,13.0054998,77.5782716
Vaishnavi Oasis bangalore,03-03-2020 23:10,0,1,0,0,0,12.8735596,77.5638325
Embassy Boulevard bangalore,03-03-2020 23:40,0,0,0,1,0,13.1479839,77.6389992
Assetz Earth & Essence bangalore,07-03-2020 20:40,0,1,0,0,0,13.1480106,77.6416023
Garuda Royal Homes bangalore,28-02-2020 19:50,0,0,1,0,0,13.0151889,77.7057087
DNR Reflection bangalore,01-03-2020 01:45,1,0,0,0,0,12.9240559,77.668665
Koncept Lake View bangalore,07-03-2020 21:10,0,0,1,0,0,13.0629474,77.6230776
KNS Ojas bangalore,05-03-2020 03:30,0,0,1,0,0,12.947932,77.445078
Midtown Raaga bangalore,05-03-2020 22:00,0,0,0,0,1,13.0045009,77.7300865
42 Queens Square bangalore,03-03-2020 04:10,0,0,1,0,0,12.8525569,77.7825326
Legacy Cataleya bangalore,28-02-2020 10:15,0,1,0,0,0,12.985034,77.595768
Purva Highland bangalore,28-02-2020 01:00,0,0,1,0,0,12.8539676,77.5446017
Prestige Kenilworth bangalore,04-03-2020 22:00,0,0,1,0,0,12.9902606,77.5961311
Provident WelWorth City bangalore,01-03-2020 12:00,1,0,0,0,0,13.2293032,77.5480973
Vajram Tiara bangalore,07-03-2020 10:35,0,1,0,0,0,13.1377116,77.5693818
MBR Suave bangalore,01-03-2020 12:05,1,0,0,0,0,13.0073616,77.7506585
Bren Palms bangalore,06-03-2020 10:10,0,0,1,0,0,12.8911424,77.6447601
Connected Living Whitefield bangalore,06-03-2020 10:10,0,0,1,0,0,13.0345602,77.7896753
Fire Luxur The Empyrean Phase II bangalore,07-03-2020 20:20,0,1,0,0,0,12.9048299,77.8677685
Ds Max Sherwood bangalore,28-02-2020 19:00,1,0,0,0,0,12.9220588,77.7231568
Sobha Rajvillas bangalore,03-03-2020 15:30,1,0,0,0,0,12.9785119,77.5631574
Prestige Sunrise Park Norwood bangalore,01-03-2020 18:35,0,0,1,0,0,12.8345846,77.6635615
Total Environment Windmills Of Your Mind bangalore,03-03-2020 22:50,0,0,1,0,0,12.9828416,77.7218047
Legacy Vivienda bangalore,03-03-2020 13:00,0,1,0,0,0,13.1857708,77.6603103
Purva The Sound Of Water bangalore,01-03-2020 22:20,0,0,1,0,0,12.8505636,77.6019434
Hiranandani Club Meadows bangalore,28-02-2020 19:25,0,0,1,0,0,12.875594,77.612397
Century Ethos bangalore,28-02-2020 21:00,1,0,0,0,0,13.0616882,77.5950079
Narmada Sri Heights bangalore,05-03-2020 13:30,0,0,1,0,0,12.8737585,77.6677287
Adarsh Palm Retreat Mayberry bangalore,05-03-2020 14:00,0,1,0,0,0,12.9164497,77.6942608
Blue Bell Homes bangalore,01-03-2020 16:05,0,0,0,1,0,12.9676128,77.7042125
Aratt Vivera bangalore,28-02-2020 19:05,0,0,1,0,0,12.8687962,77.6258232
DS & Jacks Needs 3 Project 276 bangalore,28-02-2020 22:00,0,0,0,1,0,12.8707878,77.5963239
Shriram Southern Crest bangalore,28-02-2020 19:25,0,0,1,0,0,12.9058075,77.5723024
Asset Arcadia bangalore,04-03-2020 08:00,0,1,0,0,0,12.8249955,77.7556354
Mantri Glades bangalore,28-02-2020 22:00,0,0,1,0,0,12.9113224,77.6847566
Mahindra Lifespace Windchimes Phase II bangalore,28-02-2020 00:00,1,0,0,0,0,12.88624,77.597681
Vajram Elina bangalore,03-03-2020 20:05,0,0,1,0,0,13.0781,77.6373728
Brigade Panorama Phase II bangalore,28-02-2020 14:25,0,0,1,0,0,12.8870631,77.4537078
Salarpuria Sattva Aspire bangalore,28-02-2020 13:00,0,0,1,0,0,13.083073,77.6543973
42 Queens Square bangalore,01-03-2020 22:35,0,1,0,0,0,12.8525569,77.7825326
Ozone Urbana Avenue bangalore,03-03-2020 17:40,0,1,0,0,0,12.9757272,77.6158504
Shri Balaji Ocean bangalore,06-03-2020 17:30,0,1,0,0,0,12.839761,77.7256322
Eshwaree Orchids bangalore,01-03-2020 22:30,1,0,0,0,0,12.9715987,77.5945627
Velpula Pride bangalore,05-03-2020 14:00,0,1,0,0,0,13.0863313,77.6028616
Thrive Muses Abode bangalore,03-03-2020 19:45,1,0,0,0,0,13.0261844,77.6266968
Inner Spaces Meadow In The Sun bangalore,7/3/2020 16.42 ,0,0,1,0,0,12.8982134,77.6726237
Bren Paddington bangalore,28-02-2020 10:30,0,1,0,0,0,12.9184653,77.6758485
Total Environment The Magic Faraway Tree Phase II bangalore,06-03-2020 01:35,0,0,1,0,0,12.8596021,77.5298378
Brigade Atmosphere bangalore,04-03-2020 23:05,0,0,1,0,0,13.2661949,77.7388028
Nandi Citadel bangalore,07-03-2020 14:50,0,1,0,0,0,12.8613592,77.6068838
Golden Grand bangalore,28-02-2020 14:15,0,0,1,0,0,13.0268946,77.5464606
Soma White House bangalore,04-03-2020 09:00,0,0,1,0,0,12.8753207,77.6355191
Patel Smondoville bangalore,28-02-2020 19:30,0,1,0,0,0,12.8219467,77.6577455
Garuda Royal Homes bangalore,28-02-2020 12:00,1,0,0,0,0,13.0151889,77.7057087
The County Address bangalore,07-03-2020 12:10,0,1,0,0,0,12.8807869,77.7875912
Elite Sai Gardens bangalore,07-03-2020 22:55,0,1,0,0,0,13.280901,77.7262083
NVT Life Square bangalore,03-03-2020 20:05,1,0,0,0,0,12.9754639,77.7639204
Purva Vantage bangalore,05-03-2020 00:45,0,0,1,0,0,12.9064791,77.6450269
Pavilion Villas at Brigade Orchards bangalore,28-02-2020 01:30,1,0,0,0,0,13.237063,77.72428
B&B Opulent Spire bangalore,03-03-2020 19:45,1,0,0,0,0,12.9216975,77.5997916
Citrus Polaris  bangalore,28-02-2020 19:00,1,0,0,0,0,13.06663,77.656796
Celebrity Pride bangalore,04-03-2020 08:00,0,1,0,0,0,12.8079224,77.7774934
Veracious Vani Vilas bangalore,28-02-2020 19:50,0,0,1,0,0,13.1220505,77.5768601
Hita Malibu Rosita bangalore,03-03-2020 16:10,0,1,0,0,0,12.9417311,77.7510344
Trinco Nandanavana bangalore,01-03-2020 22:30,1,0,0,0,0,12.9147753,77.6041391
Bangalore Regency Canterbury Castles bangalore,07-03-2020 23:45,0,1,0,0,0,13.014444,77.629186
Columbia Celestia bangalore,03-03-2020 17:40,0,1,0,0,0,12.8953434,77.5795256
Salarpuria Sattva Aspire bangalore,01-03-2020 15:25,0,1,0,0,0,13.083073,77.6543973
Silverwood Regency bangalore,28-02-2020 20:00,0,0,1,0,0,12.9111022,77.6777582
Citrus Zen Garden bangalore,01-03-2020 22:35,0,1,0,0,0,13.0683918,77.6049617
Salarpuria Sattva Senorita bangalore,04-03-2020 23:05,0,0,1,0,0,12.9105194,77.6825606
Pramuk MM Meridian bangalore,04-03-2020 21:30,0,1,0,0,0,12.93025,77.5751633
Orchid Greens bangalore,01-03-2020 12:00,1,0,0,0,0,13.0879221,77.6554441
The Address Makers Serenity bangalore,28-02-2020 15:40,0,0,1,0,0,12.92781,77.632888
Brigade Panorama Phase II bangalore,04-03-2020 18:00,1,0,0,0,0,12.8870631,77.4537078
Rohan Jharoka bangalore,01-03-2020 08:55,1,0,0,0,0,12.9482601,77.6765682
Lennar Edifice bangalore,28-02-2020 15:50,0,0,1,0,0,12.9779258,77.7370902
SV Spring Woods bangalore,28-02-2020 01:00,0,0,1,0,0,12.8634456,77.532143
Dhruv Paradise bangalore,03-03-2020 15:30,1,0,0,0,0,12.9027777,77.6837666
Salarpuria Sattva Casa Irene bangalore,28-02-2020 15:30,0,0,1,0,0,12.8646922,77.5911405
Salarpuria Sattva Casa Irene bangalore,03-03-2020 23:10,0,1,0,0,0,12.8646922,77.5911405
Land Capital Primero bangalore,03-03-2020 12:50,0,1,0,0,0,12.905134,77.7048731
Adisesh Prime bangalore,04-03-2020 22:00,0,0,1,0,0,13.08155,77.99827
Mahaveer Jasper bangalore,04-03-2020 21:30,0,1,0,0,0,12.8827394,77.5861908
Sobha Onyx bangalore,07-03-2020 17:00,0,0,1,0,0,12.9245191,77.6528063
Sobha Iris bangalore,7/3/2020 16.42 ,0,0,1,0,0,12.9328719,77.6846695
Purva Highland bangalore,28-02-2020 10:15,0,1,0,0,0,12.8539676,77.5446017
Saf Snowdrops bangalore,07-03-2020 16:00,0,1,0,0,0,12.8921607,77.563372
Akme Encore bangalore,07-03-2020 12:10,0,1,0,0,0,12.9725255,77.7133728
Brigade Meadows Plumeria bangalore,03-03-2020 16:00,1,0,0,0,0,12.8134935,77.5117193
Alembic Urban Forest bangalore,28-02-2020 21:15,1,0,0,0,0,12.9853338,77.7609677
Home Town The Address bangalore,28-02-2020 19:05,0,0,1,0,0,12.9382404,77.6871472
Soundarya Kamakshi bangalore,28-02-2020 08:00,0,0,0,1,0,12.9835136,77.5299315
Pride Crosswinds Villa Plots bangalore,05-03-2020 19:10,1,0,0,0,0,12.780214,77.603303
Mittal Elanza bangalore,05-03-2020 14:00,0,1,0,0,0,13.1036043,77.6208274
Fortius Waterscape bangalore,28-02-2020 14:10,0,0,1,0,0,13.019696,77.721148
Puravankara Purva Riviera bangalore,03-03-2020 13:40,0,1,0,0,0,12.9758193,77.5570922
United Meadows bangalore,04-03-2020 18:30,0,0,1,0,0,12.9658617,77.7224633
MIMS Residency bangalore,03-03-2020 14:10,0,0,0,1,0,13.086763,77.6214664
Chowriappa Constellation bangalore,28-02-2020 19:05,0,0,1,0,0,13.0547139,77.6465134
Sobha Morzaria Grandeur bangalore,03-03-2020 20:10,1,0,0,0,0,12.9339158,77.6019266
Shriram Luxor bangalore,05-03-2020 21:00,0,0,1,0,0,13.085249,77.6549154
HW Archstone bangalore,01-03-2020 16:20,0,1,0,0,0,13.0290541,77.6302934
Pride Enchanta Phase I bangalore,03-03-2020 15:30,1,0,0,0,0,12.9478889,77.5353712
GM Infinite Daffodils bangalore,28-02-2020 17:00,0,0,1,0,0,13.0617529,77.507
Prestige Laughing Waters bangalore,28-02-2020 17:00,0,1,0,0,0,12.9602478,77.7379568
Ozone Urbana Avenue bangalore,05-03-2020 14:00,0,1,0,0,0,12.9757272,77.6158504
NR Windgates bangalore,07-03-2020 20:40,0,1,0,0,0,13.0859552,77.62378
Sobha Arena - The Plaza bangalore,28-02-2020 03:30,0,0,1,0,0,12.8642033,77.53674
Sobha Daffodil bangalore,28-02-2020 19:20,0,0,1,0,0,12.9013076,77.653417
B&B Opulent Spire bangalore,07-03-2020 21:05,0,0,1,0,0,12.9216975,77.5997916
KNS Ojas bangalore,07-03-2020 19:55,0,0,0,1,0,12.947932,77.445078
Mantri Alpyne bangalore,06-03-2020 11:30,0,1,0,0,0,12.9042533,77.5274646
Whitestone Florenso bangalore,07-03-2020 10:35,0,1,0,0,0,13.059249,77.762768
L&T Raintree Boulevard bangalore,01-03-2020 22:35,0,1,0,0,0,13.0690275,77.5907992
Adarsh Palm Retreat Mayberry bangalore,03-03-2020 03:15,0,1,0,0,0,12.9164497,77.6942608
Peace Rhythm bangalore,04-03-2020 22:00,0,0,1,0,0,12.9500313,77.4978003
Salarpuria Sattva Celesta bangalore,7/3/2020 17.28,0,0,1,0,0,13.018456,77.703632
Raheja Residency bangalore,04-03-2020 21:00,0,1,0,0,0,12.928366,77.6317759
Soundarya Kamakshi bangalore,01-03-2020 15:35,0,1,0,0,0,12.9835136,77.5299315
Oceanus Classic bangalore,28-02-2020 20:30,0,0,1,0,0,13.005386,77.7316052
The Advantage Raheja Pebble Bay bangalore,05-03-2020 03:30,0,0,1,0,0,12.9175193,77.6284075
Cynosure White Spaces bangalore,06-03-2020 17:25,0,0,1,0,0,12.9899643,77.7818536
Inner Spaces Meadow In The Sun bangalore,28-02-2020 19:20,0,0,1,0,0,12.8982134,77.6726237
Cynosure White Spaces bangalore,07-03-2020 12:20,0,1,0,0,0,12.9899643,77.7818536
Provident Park Square Phase I bangalore,28-02-2020 22:10,0,0,1,0,0,12.8636392,77.5406447
ASN Galaxy bangalore,03-03-2020 17:50,0,1,0,0,0,13.0292141,77.661057
Sobha Arena - The Plaza bangalore,01-03-2020 18:35,1,0,0,0,0,12.8642033,77.53674
JRC Palladio bangalore,04-03-2020 22:00,0,0,1,0,0,12.8275997,77.7729567
NYK Metro Urbano bangalore,07-03-2020 14:00,1,0,0,0,0,12.8919021,77.6376131
SNN Raj Grandeur bangalore,03-03-2020 16:00,1,0,0,0,0,12.9025603,77.6247599
DSMAX SAROVAR bangalore,05-03-2020 06:15,0,1,0,0,0,12.7815368,77.7818487
DSMAX SKYSCAPE bangalore,28-02-2020 11:00,0,0,1,0,0,13.0550595,77.6830226
Aster Residential Layout bangalore,07-03-2020 12:20,0,1,0,0,0,12.916873,77.6358182
Niranjan Genesis bangalore,28-02-2020 22:00,0,0,1,0,0,12.8650822,77.6232727
Habitat Eden Heights bangalore,06-03-2020 14:30,0,1,0,0,0,12.9904266,77.7142049
Total Environment Learning To Fly bangalore,01-03-2020 12:00,1,0,0,0,0,12.9054503,77.5830406
Land Capital Primero bangalore,07-03-2020 03:50,0,0,1,0,0,12.905134,77.7048731
Purva Skydale bangalore,07-03-2020 16:15,0,0,1,0,0,12.894033,77.6623617
Windsor Troika bangalore,01-03-2020 16:20,0,1,0,0,0,12.8656865,77.6194878
Jain Heights Grand West bangalore,28-02-2020 08:40,0,1,0,0,0,13.0171545,77.5504018
Unishire Spacio bangalore,03-03-2020 11:20,0,1,0,0,0,12.8849319,77.6048938
NBR Green Valley bangalore,04-03-2020 18:00,1,0,0,0,0,12.8162764,77.8628083
Sipani Wattle Grove bangalore,28-02-2020 19:05,0,0,1,0,0,12.940446,77.623403
Definer Hi-Life bangalore,04-03-2020 22:00,0,0,1,0,0,13.0361409,77.6932524
SJR Residency bangalore,28-02-2020 19:05,0,0,1,0,0,12.9276275,77.6891907
Pioneer Sun Blossom bangalore,28-02-2020 22:30,0,0,0,1,0,12.8348947,77.648506
Premier Inspira Maplewood bangalore,05-03-2020 23:10,0,1,0,0,0,12.9054239,77.6993194
Trillium Apartment bangalore,03-03-2020 00:15,0,0,1,0,0,12.867074,77.690808
Kolte Patil Mirabilis bangalore,04-03-2020 23:05,0,0,1,0,0,13.031804,77.661173
Fire Luxur The Empyrean bangalore,05-03-2020 19:10,0,1,0,0,0,12.9048299,77.8677685
Rohan Vasantha bangalore,05-03-2020 19:05,1,0,0,0,0,12.9568204,77.7070217
Godrej Air bangalore,28-02-2020 00:00,1,0,0,0,0,12.9886656,77.7118501
Cleartile The Rare Earth Plots bangalore,01-03-2020 00:55,0,1,0,0,0,12.8784133,77.7097953
Zed Earth bangalore,03-01-2020 16:30,1,0,0,0,0,13.0054998,77.5782716
Garuda Estilo Homes bangalore,01-03-2020 08:55,1,0,0,0,0,12.9948427,77.7645333
Bren Paddington bangalore,07-03-2020 16:15,0,0,1,0,0,12.9184653,77.6758485
NCN Swasthi bangalore,03-03-2020 23:10,0,1,0,0,0,13.0187542,77.6305949
Chamundi Amber Woods bangalore,28-02-2020 21:45,0,0,1,0,0,12.8763746,77.5304509
BRR Sai Sankalp bangalore,04-03-2020 22:00,0,0,1,0,0,12.9976477,77.7598434
DSMAX SKYCITY bangalore,06-03-2020 20:45,0,0,0,1,0,13.0810365,77.6343988
Sowparnika Columns bangalore,01-03-2020 12:05,1,0,0,0,0,12.9930415,77.8059633
SRK The Villagio bangalore,28-02-2020 15:50,1,0,0,0,0,13.0080164,77.7621594
Shell North Gate bangalore,03-03-2020 13:00,0,1,0,0,0,13.0669963,77.6468544
Legacy Cataleya bangalore,01-03-2020 18:35,0,0,1,0,0,12.985034,77.595768
Provident The Tree bangalore,01-03-2020 15:25,0,1,0,0,0,12.9960104,77.4848412
Basava Pride bangalore,01-03-2020 15:30,0,0,0,1,0,13.01401,77.717031
Mahidhara Fortune City bangalore,01-03-2020 12:00,1,0,0,0,0,12.7748955,77.7830251
Sobha Marvella bangalore,07-03-2020 10:35,0,1,0,0,0,12.9267833,77.6726791
TG Lakevista bangalore,03-03-2020 15:30,1,0,0,0,0,12.8734735,77.6343724
M1 Terra Alegria bangalore,28-02-2020 12:00,1,0,0,0,0,13.1042593,77.7748724
E Golden Abode bangalore,28-02-2020 15:50,0,0,1,0,0,12.8511396,77.6735544
Bhartiya City Nikoo Homes II bangalore,03-03-2020 22:50,0,1,0,0,0,13.085357,77.644525
Bhartiya City 2 bangalore,06-03-2020 20:45,0,0,0,1,0,13.0832763,77.6423729
CoEvolve Northern Star bangalore,05-03-2020 19:30,1,0,0,0,0,13.081174,77.625001
Gopalan Sanskriti bangalore,07-03-2020 18:00,0,0,1,0,0,12.9128816,77.4958233
Hiren High Cliff bangalore,07-03-2020 12:50,1,0,0,0,0,12.9124433,77.6517185
Skylark Ithaca bangalore,07-03-2020 19:05,0,1,0,0,0,13.0124263,77.7355337
Embassy Springs bangalore,03-03-2020 15:30,1,0,0,0,0,13.2026171,77.6241374
GR Elysium 3 bangalore,07-03-2020 13:35,0,0,0,1,0,13.0000972,77.7514952
Mantri Espana bangalore,05-03-2020 14:55,1,0,0,0,0,12.9344706,77.6835063
Splendid Lake Dews bangalore,01-03-2020 22:20,0,0,1,0,0,12.8700365,77.6272663
DSMAX SKYLISHCIOUS bangalore,01-03-2020 18:35,0,0,1,0,0,12.834025,77.7865073
Sai Ashirwad Natures Nest bangalore,01-03-2020 18:25,0,0,1,0,0,12.835969,77.691623
Dhanapriya Paradise bangalore,01-03-2020 16:05,0,0,0,1,0,12.9715987,77.5945627
Goyal Alanoville bangalore,01-03-2020 16:05,0,0,0,1,0,13.0887141,77.6594168
SLS Square bangalore,07-03-2020 18:00,0,0,1,0,0,12.9719967,77.7153684
GR Regent Park bangalore,01-03-2020 15:20,1,0,0,0,0,12.8551283,77.5936002
B&B Opulent Spire bangalore,28-02-2020 22:30,1,0,0,0,0,12.9216975,77.5997916
Ajmera Nucleus bangalore,07-03-2020 20:40,0,1,0,0,0,12.851016,77.6807465
DSMAX SKYSCAPE bangalore,07-03-2020 19:55,0,0,0,1,0,13.0550595,77.6830226
Sriven Rag Meridian bangalore,28-02-2020 00:00,1,0,0,0,0,12.8183059,77.6898768
Vaishnavi North 24 bangalore,28-02-2020 15:50,0,0,1,0,0,13.052728,77.597305
Provident The Tree bangalore,28-02-2020 15:40,0,0,1,0,0,12.9960104,77.4848412
GM Global Techies Town Tower 01 A bangalore,03-03-2020 12:50,0,1,0,0,0,12.8227035,77.6608411
Sumadhura Silver Ripples bangalore,28-02-2020 11:55,0,1,0,0,0,12.9691977,77.7388622
Embassy Boulevard bangalore,03-03-2020 16:10,0,1,0,0,0,13.1479839,77.6389992
Sobha Forest Edge bangalore,04-03-2020 18:30,0,0,1,0,0,12.8763618,77.5285878
Aratt Firenza bangalore,05-03-2020 19:05,1,0,0,0,0,12.8291828,77.6619456
Bhartiya City Nikoo Homes bangalore,03-03-2020 16:10,0,1,0,0,0,13.085357,77.644525
Salarpuria Sattva Northland bangalore,28-02-2020 22:10,0,1,0,0,0,13.082285,77.654127
Gopalan Lake Front bangalore,03-03-2020 23:40,0,0,0,1,0,12.8377608,77.6764512
Sobha Indraprastha bangalore,28-02-2020 23:50,0,0,1,0,0,12.9811535,77.5634417
Prestige Lake Ridge bangalore,28-02-2020 12:00,1,0,0,0,0,12.8968323,77.5411672
SSVR Iris bangalore,01-03-2020 16:05,0,0,0,1,0,12.9401171,77.7336308
Garuda Royal Homes bangalore,28-02-2020 01:30,1,0,0,0,0,13.0151889,77.7057087
V K Krishna Gardenia bangalore,06-03-2020 13:45,0,1,0,0,0,12.8780046,77.5485323
Sowparnika Indraprastha bangalore,03-03-2020 11:20,0,1,0,0,0,12.9865162,77.822102
Prestige Lakeside Habitat bangalore,28-02-2020 22:00,0,0,1,0,0,12.9299576,77.7401083
Srimitra Lifestyle bangalore,04-03-2020 18:00,1,0,0,0,0,13.0305625,77.668072
Salarpuria Sattva Senorita bangalore,28-02-2020 17:00,0,1,0,0,0,12.9105194,77.6825606
Shoban Silver Domicile bangalore,03-03-2020 13:40,0,1,0,0,0,13.0626596,77.6278831
Karle Zenith Residences bangalore,04-03-2020 22:00,0,0,1,0,0,13.0472844,77.6161294
Concorde Epitome bangalore,06-03-2020 20:45,0,0,0,1,0,12.8378157,77.6940515
Melange Smart Neighbourhoods bangalore,01-03-2020 12:05,1,0,0,0,0,12.8578542,77.7978698
Avanti by Shriline bangalore,05-03-2020 22:00,0,0,0,0,1,12.7101547,77.7072491
Godrej Reflections bangalore,03-03-2020 14:10,0,0,0,1,0,12.9118913,77.668165
DSMAX SAVERA bangalore,28-02-2020 14:15,0,0,1,0,0,12.9060634,77.5403467
Chethana Heritage bangalore,03-03-2020 21:20,0,0,1,0,0,12.9715987,77.5945627
Aakruti Amity  bangalore,28-02-2020 10:15,0,1,0,0,0,12.8340825,77.6950016
Orchid Piccadilly bangalore,01-03-2020 22:20,0,0,1,0,0,13.0862364,77.6326754
Arvind Skylands bangalore,01-03-2020 18:25,0,0,1,0,0,13.0892362,77.6014
Apex Crystal bangalore,28-02-2020 12:00,1,0,0,0,0,12.9715987,77.5945627
Altius Ardour bangalore,01-03-2020 08:55,1,0,0,0,0,12.8354267,77.7686139
Hiren High Cliff bangalore,07-03-2020 21:10,0,0,1,0,0,12.9124433,77.6517185
Sri Lakshmi Vallabha Land Mark bangalore,04-03-2020 13:40,0,1,0,0,0,12.890488,77.5521392
Gina Shalom bangalore,01-03-2020 01:45,1,0,0,0,0,13.0184845,77.7079185
Sobha Valley View bangalore,28-02-2020 00:00,1,0,0,0,0,12.9312341,77.5290558
Prestige Misty Waters phase 1 bangalore,28-02-2020 11:00,0,0,1,0,0,13.046145,77.601622
Oceanus Classic bangalore,07-03-2020 21:20,0,0,1,0,0,13.005386,77.7316052
GCN White Palms bangalore,28-02-2020 22:00,0,0,1,0,0,12.9616048,77.742095
The Magic Faraway Tree bangalore,03-03-2020 14:10,0,0,0,1,0,12.859542,77.5299544
ND Magnolia Apartment bangalore,01-03-2020 18:35,0,0,1,0,0,12.9745516,77.7679833
VARS Parkwood bangalore,28-02-2020 13:00,0,0,1,0,0,12.9156691,77.6909634
Brigade Cosmopolis - Phase 1 & 2 bangalore,03-03-2020 00:15,0,0,1,0,0,12.9621546,77.7461421
NM Sai Sunshine bangalore,28-02-2020 22:10,0,1,0,0,0,12.9479238,77.7126668
ALPS Aurora bangalore,04-03-2020 23:05,0,0,1,0,0,12.8145655,77.6729006
Assetz East Point bangalore,28-02-2020 19:00,0,0,1,0,0,12.9212968,77.6945395
The Phoenix Mills Kessaku bangalore,01-03-2020 20:45,0,0,1,0,0,13.0107038,77.5536372
Cynosure White Spaces bangalore,28-02-2020 15:30,0,0,1,0,0,12.9899643,77.7818536
The Phoenix Mills Kessaku bangalore,01-03-2020 01:45,1,0,0,0,0,13.0107038,77.5536372
Century Artizan bangalore,28-02-2020 01:30,1,0,0,0,0,13.129355,77.595041
Renaissance Nature Walk bangalore,03-03-2020 12:50,0,1,0,0,0,13.0046798,77.7182604
Skylark Ithaca bangalore,28-02-2020 11:00,0,0,1,0,0,13.0124263,77.7355337
Hiranandani Horizon bangalore,28-02-2020 21:45,0,0,1,0,0,19.1153798,72.9091436
Sruthika Springfields bangalore,03-03-2020 14:00,0,0,1,0,0,13.0776893,77.5385716
URI Shirdi Sri Sai Nagar bangalore,28-02-2020 00:00,1,0,0,0,0,12.9714651,77.540545
Nitesh Hyde Park bangalore,07-03-2020 13:35,0,0,0,1,0,12.8717726,77.5979352
North Gardens bangalore,05-03-2020 18:45,1,0,0,0,0,12.9715987,77.5945627
Buildmann Aaroha Condominiums  bangalore,07-03-2020 20:20,1,0,0,0,0,13.038895,77.702585
Sobha Dream Acres bangalore,28-02-2020 10:15,0,1,0,0,0,12.9391021,77.7376639
GM Infinite Elegance Tower bangalore,07-03-2020 16:00,0,1,0,0,0,12.9165545,77.6184368
S2 Avantikaa bangalore,04-03-2020 19:05,0,1,0,0,0,12.8569538,77.7662866
Shriram Chirping Woods Apartment bangalore,01-03-2020 16:20,0,1,0,0,0,12.9090034,77.6688901
Sumadhura Lake Breeze bangalore,06-03-2020 11:30,0,1,0,0,0,12.9566809,77.7248939
SNN Clermont bangalore,07-03-2020 14:00,1,0,0,0,0,13.0412129,77.6093979
Zonasha Elegance bangalore,28-02-2020 17:00,0,0,0,1,0,12.8988592,77.6682758
Saideep Hulas bangalore,03-03-2020 19:45,1,0,0,0,0,13.0416462,77.7436449
Krishna Brighton bangalore,05-03-2020 15:40,0,1,0,0,0,13.1035207,77.5796734
Bren Woods bangalore,07-03-2020 12:10,0,1,0,0,0,12.8617047,77.6832261
Bluejay Malgudi bangalore,05-03-2020 06:15,0,1,0,0,0,12.8651727,77.5484676
Keystone Sarovar bangalore,28-02-2020 23:00,0,0,1,0,0,12.8670332,77.5733981
Sekhar Olympus bangalore,01-03-2020 22:20,0,0,1,0,0,13.0311397,77.6579922
GK Tropical Springs bangalore,06-03-2020 15:20,0,1,0,0,0,12.9846992,77.7761359
Kumari Lotus bangalore,01-03-2020 22:20,0,0,1,0,0,12.9033063,77.6846818
Saf Snowdrops bangalore,01-03-2020 17:30,0,1,0,0,0,12.8921607,77.563372
Buildmann Aaroha Condominiums  bangalore,28-02-2020 15:30,0,0,1,0,0,13.038895,77.702585
Radiant Lake View bangalore,07-03-2020 21:05,0,0,1,0,0,13.0320876,77.7210642
JK Suchiraa Villas bangalore,05-03-2020 19:10,0,1,0,0,0,13.0694552,77.5173107
Cansa Dhiya bangalore,28-02-2020 11:55,0,1,0,0,0,12.9307557,77.7112407
Bren Woods bangalore,01-03-2020 12:00,1,0,0,0,0,12.8617047,77.6832261
Shapoorji Pallonji ParkWest Mahogany bangalore,03-03-2020 16:10,0,1,0,0,0,12.963803,77.5610241
Skylark Royaume bangalore,07-03-2020 13:00,0,0,1,0,0,12.8661023,77.665878
SNN Raj Serenity bangalore,28-02-2020 21:15,1,0,0,0,0,12.8589085,77.613768
Vasathi Avante bangalore,28-02-2020 15:00,0,0,1,0,0,13.0606229,77.6222783
Mahaveer Zephyr bangalore,04-03-2020 13:30,0,0,1,0,0,12.900891,77.6193205
The County Address bangalore,05-03-2020 10:00,0,1,0,0,0,12.8807869,77.7875912
Garuda Vista bangalore,07-03-2020 20:40,0,1,0,0,0,12.9852446,77.6867056
TG Lakevista bangalore,04-03-2020 21:30,0,1,0,0,0,12.8734735,77.6343724
SJR Hamilton Homes bangalore,05-03-2020 19:30,1,0,0,0,0,12.8654578,77.6976643
K Raheja Jade Gardens bangalore,07-03-2020 21:05,0,0,1,0,0,13.204637,77.6506622
Adiga 100 trees bangalore,03-03-2020 00:15,0,0,1,0,0,12.9185092,77.5940323
Adithya Garden  bangalore,28-02-2020 10:15,0,1,0,0,0,12.8645579,77.6594665
Goyal Orchid Lakeview bangalore,07-03-2020 19:55,0,0,0,1,0,12.9315349,77.6786481
Prestige Ozone bangalore,01-03-2020 22:30,1,0,0,0,0,12.9590509,77.7494998
Jain Heights Grand West bangalore,05-03-2020 15:40,0,1,0,0,0,13.0171545,77.5504018
Samhita Elite bangalore,03-03-2020 21:20,0,0,1,0,0,13.0351177,77.7042186
Legacy Vivienda bangalore,06-03-2020 15:30,0,0,1,0,0,13.1857708,77.6603103
Kumar Kino Platinum bangalore,28-02-2020 14:25,0,0,1,0,0,12.985738,77.5748938
Maarq Alpha bangalore,07-03-2020 20:40,1,0,0,0,0,12.9144324,77.7021837
Aryan Golden Arena bangalore,07-03-2020 00:35,0,0,1,0,0,12.806845,77.7825336
Upkar Habitat bangalore,28-02-2020 15:00,0,0,1,0,0,12.7445533,77.7824429
LGCL New Life Villas bangalore,04-03-2020 21:30,0,1,0,0,0,12.884808,77.685152
Pramuk MM Meridian bangalore,03-03-2020 22:50,0,1,0,0,0,12.93025,77.5751633
Aishwarya Splendour bangalore,28-02-2020 19:45,0,0,0,1,0,12.8964934,77.5858455
CMRS Mulberry Mist bangalore,7/3/2020 17.28,0,0,1,0,0,12.9450837,77.7524506
Odion Rainbow Retreat bangalore,07-03-2020 17:00,0,0,1,0,0,12.8957846,77.6865903
Sizzle Gold Coast bangalore,07-03-2020 16:00,0,1,0,0,0,13.0161167,77.6599252
Shravanthi Sunniva Willow bangalore,07-03-2020 20:40,1,0,0,0,0,12.8528408,77.7827893
Kumari Amaranthine bangalore,28-02-2020 19:20,0,0,1,0,0,12.9176952,77.6973403
Prestige Lake Ridge bangalore,28-02-2020 15:50,0,1,0,0,0,12.8968323,77.5411672
Mahaveer Carnation bangalore,28-02-2020 17:00,0,1,0,0,0,12.9666845,77.599546
Radiant Elitaire bangalore,01-03-2020 22:30,1,0,0,0,0,12.8830931,77.5830352
Concorde Luxepolis bangalore,01-03-2020 16:05,0,0,0,1,0,12.9567983,77.567828
Zonasha Paradiso bangalore,04-03-2020 22:00,0,0,1,0,0,12.9754771,77.7038489
GE Global Green Apple Villas bangalore,28-02-2020 22:10,0,1,0,0,0,12.7861815,77.7124387
Meda Greens bangalore,01-03-2020 17:30,0,1,0,0,0,12.9206595,77.4926622
Sri Nandana Royal bangalore,04-03-2020 22:00,0,0,1,0,0,12.8337182,77.7014436
DSMAX SKYSCAPE bangalore,07-03-2020 20:20,0,1,0,0,0,13.0550595,77.6830226
Disha Central Park bangalore,07-03-2020 14:50,0,1,0,0,0,12.9376923,77.713246
Buildmann Aaroha Condominiums  bangalore,28-02-2020 19:45,0,0,0,1,0,13.038895,77.702585
Ozone Urbana bangalore,04-03-2020 19:05,0,1,0,0,0,13.2032646,77.6635981
Jain Heights East Parade bangalore,03-03-2020 22:50,0,0,1,0,0,12.9735006,77.6823713
Salarpuria Sattva Celesta bangalore,28-02-2020 19:00,0,0,1,0,0,13.018456,77.703632
Oceanus Tranquil bangalore,28-02-2020 12:00,1,0,0,0,0,13.0372514,77.6894379
Hiranandani Club Meadows bangalore,03-03-2020 20:40,0,1,0,0,0,12.875594,77.612397
DSMAX SKYCLASSIC bangalore,01-03-2020 18:25,0,0,1,0,0,12.8178837,77.6708954
Zonasha Paradiso bangalore,01-03-2020 18:25,0,0,1,0,0,12.9754771,77.7038489
Salarpuria Sattva East Crest bangalore,05-03-2020 23:10,0,1,0,0,0,13.043223,77.7482414
Vaswani Menlo Park bangalore,03-03-2020 22:50,0,1,0,0,0,12.9492007,77.717493
Prestige Royale Gardens bangalore,28-02-2020 23:00,0,0,1,0,0,13.1395085,77.5706395
Arge Urban Bloom bangalore,07-03-2020 21:10,0,0,1,0,0,13.0259697,77.5329519
Godrej Reflections bangalore,05-03-2020 19:05,1,0,0,0,0,12.9118913,77.668165
The Advantage Raheja Pebble Bay bangalore,01-03-2020 15:20,1,0,0,0,0,12.9175193,77.6284075
Candeur Carlisle bangalore,04-03-2020 22:00,0,0,1,0,0,12.9969877,77.6899549
Candeur Carlisle bangalore,04-03-2020 22:00,0,0,1,0,0,12.9969877,77.6899549
Sobha Clovelly bangalore,03-03-2020 23:10,0,1,0,0,0,12.911386,77.5559079
Adiga 100 trees bangalore,04-03-2020 22:00,0,0,1,0,0,12.9185092,77.5940323
Total Environment Pursuit of A Radical Rhapsody bangalore,07-03-2020 21:20,0,0,1,0,0,12.99143,77.7205139
Prestige Gulmohar bangalore,05-03-2020 19:05,1,0,0,0,0,13.0288528,77.6649757
Manar Pureearth bangalore,06-03-2020 20:30,0,0,1,0,0,12.8667734,77.7872346
ALPS Aurora bangalore,03-03-2020 20:05,0,0,1,0,0,12.8145655,77.6729006
Prodaacon Mounika Espancia bangalore,04-03-2020 18:00,1,0,0,0,0,13.0371268,77.6643917
AR Splendor Park bangalore,06-03-2020 15:30,0,0,1,0,0,13.042217,77.6552918
Celebrity Pride bangalore,01-03-2020 01:45,1,0,0,0,0,12.8079224,77.7774934
Definer Hi-Life bangalore,07-03-2020 19:05,0,1,0,0,0,13.0361409,77.6932524
DSMAX STONESCAPE bangalore,06-03-2020 01:35,0,0,1,0,0,12.8518163,77.5573227
Dharanis Prakruthi Park bangalore,05-03-2020 14:55,1,0,0,0,0,12.8461858,77.8275989
Hilife Greens bangalore,05-03-2020 19:30,0,0,0,1,0,12.9303537,77.7302936
SLV Magnum bangalore,05-03-2020 12:10,1,0,0,0,0,12.9108838,77.6242128
Sobha Heritage bangalore,05-03-2020 19:30,0,1,0,0,0,12.9312565,77.5290121
Nambiar Bellezea bangalore,28-02-2020 14:10,0,0,1,0,0,12.8423459,77.727032
Arvind Sporcia bangalore,28-02-2020 15:50,0,0,0,1,0,13.0624992,77.6215293
G Corp Residences bangalore,01-03-2020 20:45,0,0,1,0,0,12.9303569,77.6365973
LGCL Luxuriate bangalore,01-03-2020 12:00,1,0,0,0,0,12.9165932,77.6347147
Jain Heights Grand West bangalore,28-02-2020 19:45,0,0,0,1,0,13.0171545,77.5504018
NCN Swasthi bangalore,01-03-2020 14:20,1,0,0,0,0,13.0187542,77.6305949
North Gardens bangalore,28-02-2020 21:15,1,0,0,0,0,12.9715987,77.5945627
Embassy Pristine bangalore,28-02-2020 22:00,0,0,1,0,0,12.9280203,77.6609868
Shri Sai Mounika Park Vesta bangalore,28-02-2020 19:45,0,0,0,1,0,13.0415694,77.6487652
Raja Aristos bangalore,05-03-2020 15:40,0,1,0,0,0,12.8639286,77.5981177
Dharma Castle bangalore,01-03-2020 15:35,0,1,0,0,0,13.0106268,77.6532302
SBI New Bangalore bangalore,07-03-2020 14:00,1,0,0,0,0,12.8762164,77.6164271
Pioneer Kingstown bangalore,07-03-2020 20:40,0,1,0,0,0,12.8878665,77.6441936
Yuva Eka bangalore,28-02-2020 17:00,0,1,0,0,0,12.8759951,77.6421833
Unishire Spacio bangalore,06-03-2020 11:40,0,0,1,0,0,12.8849319,77.6048938
Gravity Sundridge bangalore,04-03-2020 19:05,0,1,0,0,0,13.1777165,77.5593515
Valmark Cityville bangalore,05-03-2020 23:10,0,1,0,0,0,12.8626587,77.604309
Pruthvi Royal bangalore,01-03-2020 22:30,1,0,0,0,0,12.8627337,77.5943649
Aban Desire bangalore,03-03-2020 17:50,0,1,0,0,0,12.8281273,77.7766475
Shravanthi Oakridge bangalore,05-03-2020 12:10,1,0,0,0,0,12.8720988,77.5295509
Global Villas bangalore,05-03-2020 10:00,0,1,0,0,0,12.8592252,77.646217
Sumukha Residency bangalore,03-03-2020 22:50,0,1,0,0,0,12.9607204,77.5943232
Vaswani Walnut Creek bangalore,07-03-2020 20:40,1,0,0,0,0,12.8935672,77.6938473
Spectra Palmwoods bangalore,28-02-2020 11:00,0,0,1,0,0,12.9617125,77.7324062
SMD Altezz bangalore,01-03-2020 15:25,0,1,0,0,0,12.99911,77.7526073
SMD Altezz bangalore,07-03-2020 00:35,0,0,1,0,0,12.99911,77.7526073
Bren Champions Square bangalore,28-02-2020 19:20,0,0,1,0,0,12.901324,77.7085945
Mahaveer Sitara bangalore,05-03-2020 15:40,0,1,0,0,0,12.8937,77.5866427
TooGoodHomes by Provident bangalore,05-03-2020 22:00,0,0,0,0,1,13.0831589,77.6194189
New Dawn bangalore,07-03-2020 03:50,0,0,1,0,0,12.8640688,77.6979503
Gravity Nakshatra bangalore,03-03-2020 20:10,1,0,0,0,0,13.073371,77.8041139
SVR Green Woods bangalore,07-03-2020 21:10,0,0,1,0,0,12.9478872,77.7224729
Prestige Leela Residences bangalore,03-03-2020 13:00,0,1,0,0,0,12.9604699,77.6500106
Reliaable Lifestyle bangalore,05-03-2020 18:15,0,0,1,0,0,12.8951713,77.668645
S2 Homes Butterfly Gardens bangalore,04-03-2020 20:00,0,0,1,0,0,12.7671408,77.6316248
Provident Park Square Phase I bangalore,03-03-2020 00:15,0,0,1,0,0,12.8636392,77.5406447
SOBHA Arena - The Park bangalore,06-03-2020 10:10,0,0,1,0,0,12.8642033,77.53674
Oceanus Tranquil bangalore,05-03-2020 13:15,0,0,1,0,0,13.0372514,77.6894379
Century Artizan bangalore,05-03-2020 14:55,1,0,0,0,0,13.129355,77.595041
Sobha Onyx bangalore,28-02-2020 21:15,1,0,0,0,0,12.9245191,77.6528063
Kumari Lotus bangalore,28-02-2020 22:10,0,1,0,0,0,12.9033063,77.6846818
S2 Homes The Water Grove bangalore,01-03-2020 19:50,0,0,0,1,0,12.8368015,77.6871048
Sipani Santa Monica bangalore,05-03-2020 06:15,0,1,0,0,0,12.940446,77.623403
Odions The Woods of East Phase 2 bangalore,28-02-2020 15:50,0,0,1,0,0,12.8913922,77.6937237
SMD Altezz bangalore,03-03-2020 20:10,1,0,0,0,0,12.99911,77.7526073
Casa Gopalan bangalore,28-02-2020 20:30,0,0,1,0,0,12.9685201,77.7424363
SVR Green Woods bangalore,04-03-2020 08:00,0,1,0,0,0,12.9478872,77.7224729
Definer Kingdom bangalore,07-03-2020 13:00,0,0,1,0,0,13.073524,77.7446716
Sowparnika Columns bangalore,01-03-2020 17:30,0,1,0,0,0,12.9930415,77.8059633
Supertech Micasa bangalore,28-02-2020 15:50,0,0,1,0,0,13.097949,77.644494
Kritan Iris bangalore,05-03-2020 20:00,0,1,0,0,0,12.8361701,77.6966127
DSMAX SKYCLASSIC bangalore,06-03-2020 20:30,0,0,1,0,0,12.8178837,77.6708954
Keerthi Regalia bangalore,05-03-2020 14:00,0,1,0,0,0,12.9103529,77.6846989
Prestige Spencer Heights bangalore,28-02-2020 15:50,0,0,1,0,0,12.9956569,77.6104792
Blue Bell Homes bangalore,28-02-2020 21:45,0,0,1,0,0,12.9676128,77.7042125
Aakruti Amity  bangalore,06-03-2020 13:45,0,1,0,0,0,12.8340825,77.6950016
ARS Bhavisha bangalore,03-03-2020 03:15,0,1,0,0,0,12.8596605,77.7656243
Mantri Tranquil bangalore,28-02-2020 15:40,0,0,1,0,0,12.8867375,77.5451932
HW Archstone bangalore,06-03-2020 11:40,0,0,1,0,0,13.0290541,77.6302934
The Magic Faraway Tree bangalore,03-03-2020 23:10,0,1,0,0,0,12.859542,77.5299544
Prestige Lakeside Habitat Villa bangalore,07-03-2020 18:05,1,0,0,0,0,12.9299576,77.7401083
Century Infiniti bangalore,04-03-2020 13:40,0,1,0,0,0,12.8975268,77.6772502
Sobha HRC Pristine bangalore,07-03-2020 14:00,1,0,0,0,0,13.0679382,77.6059904
Sizzle Gold Coast bangalore,04-03-2020 13:40,0,1,0,0,0,13.0161167,77.6599252
GM Infinite E City Town Phase I bangalore,01-03-2020 08:55,1,0,0,0,0,12.8192308,77.66407
SRC blue bells bangalore,28-02-2020 22:10,0,0,1,0,0,12.8328724,77.6897124
Mantri Energia bangalore,04-03-2020 08:00,0,1,0,0,0,13.0543825,77.6194839
Pavani Sarovar bangalore,28-02-2020 15:00,0,0,1,0,0,12.9726354,77.7340972
Fortuna Krrish bangalore,07-03-2020 21:05,0,0,1,0,0,13.0407862,77.6753256
Esteem Emblem bangalore,05-03-2020 14:00,0,1,0,0,0,12.8382576,77.6846614
Myhna Maple bangalore,06-03-2020 20:45,0,0,0,1,0,12.934066,77.741577
Century Infiniti bangalore,01-03-2020 16:40,1,0,0,0,0,12.8975268,77.6772502
Ruchira Aarna Homes bangalore,05-03-2020 21:00,0,0,1,0,0,12.9647206,77.7552794
M1 Terra Alegria bangalore,28-02-2020 14:10,0,0,1,0,0,13.1042593,77.7748724
Sobha Sunscape bangalore,28-02-2020 15:50,0,1,0,0,0,12.8643066,77.5212751
Habitat Crest bangalore,07-03-2020 03:50,0,0,1,0,0,12.9907059,77.7227793
Hiranandani Glen Gate bangalore,05-03-2020 03:30,0,0,1,0,0,13.0530787,77.5743451
Meda Greens bangalore,05-03-2020 22:20,0,1,0,0,0,12.9206595,77.4926622
Adarsh Tranqville bangalore,01-03-2020 22:20,0,0,1,0,0,13.0779618,77.6533609
Mythri Arteor bangalore,28-02-2020 20:00,0,0,1,0,0,12.8874178,77.6294089
Motzkin Park Terrace bangalore,28-02-2020 13:00,0,0,1,0,0,12.8277163,77.7776498
Kumar Kino Platinum bangalore,07-03-2020 20:20,0,1,0,0,0,12.985738,77.5748938
Niranjan Genesis bangalore,07-03-2020 16:15,0,0,1,0,0,12.8650822,77.6232727
Prestige Monte Carlo bangalore,05-03-2020 06:15,0,1,0,0,0,13.1152916,77.5774514
Vaishnavi Serene bangalore,04-03-2020 17:00,0,0,0,0,1,13.1241534,77.5672242
Sumukha Residency bangalore,05-03-2020 22:20,0,1,0,0,0,12.9607204,77.5943232
GAG Classic Amrutha bangalore,28-02-2020 10:30,0,1,0,0,0,12.8750421,77.5439551
Global Golden Pearl bangalore,01-03-2020 15:30,0,0,0,1,0,12.787143,77.777111
Reliaable Dollar Colony Phase II bangalore,01-03-2020 15:35,0,1,0,0,0,12.8608338,77.6734677
Krishnaja Northcity bangalore,05-03-2020 19:30,0,0,1,0,0,13.2389421,77.7059788
Lennar Edifice bangalore,28-02-2020 19:25,0,0,1,0,0,12.9779258,77.7370902
Reliaable Residenza bangalore,04-03-2020 22:00,0,0,1,0,0,12.8656562,77.690064
Brigade 7 Gardens bangalore,28-02-2020 12:00,1,0,0,0,0,12.895314,77.5302144
NCC Urban Green Province bangalore,01-03-2020 08:55,1,0,0,0,0,12.866571,77.7720839
Salarpuria Sattva Cadenza bangalore,28-02-2020 10:30,0,1,0,0,0,12.889441,77.6402211
Aratt Rolling Whites bangalore,05-03-2020 07:30,0,1,0,0,0,12.7481938,77.6837066
Subhodaya Luxuria bangalore,04-03-2020 18:30,0,0,1,0,0,12.9372251,77.7045745
SJR WaterMark bangalore,06-03-2020 15:20,0,1,0,0,0,12.9132624,77.6704345
SJR Hamilton Homes bangalore,28-02-2020 18:00,0,1,0,0,0,12.8654578,77.6976643
Pranavas BSR Gitaaar bangalore,28-02-2020 19:50,0,0,1,0,0,12.9422451,77.7014517
Krishna Arya Elegant bangalore,03-03-2020 20:40,0,1,0,0,0,13.0165757,77.5475265
Northern Destiny bangalore,06-03-2020 13:45,0,1,0,0,0,13.1000006,77.6337199
Sobha Morzaria Grandeur Phase II bangalore,07-03-2020 16:15,0,0,1,0,0,12.9339158,77.6019266
Garuda Blossom bangalore,06-03-2020 17:30,0,1,0,0,0,13.017519,77.7090184
Purva Seasons bangalore,03-03-2020 11:20,0,1,0,0,0,12.9878209,77.6668541
Brigade Golden Triangle bangalore,28-02-2020 14:10,0,0,1,0,0,13.0549285,77.762862
Shapoorji Pallonji ParkWest Mahogany bangalore,01-03-2020 16:40,1,0,0,0,0,12.963803,77.5610241
Golden Leaf Luxury Apartment bangalore,28-02-2020 17:00,0,1,0,0,0,12.915528,77.6254919
Salarpuria Sattva Greenage bangalore,01-03-2020 12:00,1,0,0,0,0,12.9024372,77.6313115
Velpula Pride bangalore,07-03-2020 18:00,0,0,1,0,0,13.0863313,77.6028616
Mantri Espana bangalore,03-03-2020 14:00,0,0,1,0,0,12.9344706,77.6835063
Midtown Rhythm bangalore,04-03-2020 20:00,0,0,1,0,0,12.960095,77.741935
Brinda Imperial Phase I bangalore,28-02-2020 19:30,0,1,0,0,0,12.753406,77.649038
RS Sanchike bangalore,7/3/2020 17.28,0,0,1,0,0,12.9232226,77.4780692
The Central Regency Address bangalore,01-03-2020 12:05,1,0,0,0,0,12.9210342,77.6706402
Prestige Ozone bangalore,7/3/2020 16.42 ,0,0,1,0,0,12.9590509,77.7494998
Orchid Whitefield bangalore,01-03-2020 20:45,0,0,1,0,0,12.9643023,77.7575018
Atco Sapphire bangalore,28-02-2020 15:30,0,0,1,0,0,12.8606884,77.7767483
Akme Harmony bangalore,04-03-2020 21:30,0,1,0,0,0,12.9224347,77.6711293
LGCL Happy Days bangalore,03-03-2020 17:40,0,1,0,0,0,13.0764068,77.6659443
SLV Pragathi Amber bangalore,04-03-2020 17:00,0,0,0,0,1,12.8363904,77.6977372
Prestige Sunrise Park Norwood bangalore,06-03-2020 13:45,0,1,0,0,0,12.8345846,77.6635615
DSR White Waters bangalore,01-03-2020 12:00,1,0,0,0,0,12.9167469,77.7168083
Adithya Garden  bangalore,05-03-2020 19:10,1,0,0,0,0,12.8645579,77.6594665
TG Lakevista bangalore,07-03-2020 13:00,0,0,1,0,0,12.8734735,77.6343724
Prestige Pine Wood bangalore,06-03-2020 10:10,0,0,1,0,0,12.9312272,77.6345867
Adarsh Premia bangalore,28-02-2020 19:00,1,0,0,0,0,12.920315,77.5616
DS Max Sankalp Manor bangalore,28-02-2020 03:00,0,0,1,0,0,13.0396616,77.6726014
NVT Arcot Vaksana bangalore,07-03-2020 20:20,0,1,0,0,0,12.8536467,77.7840279
Estella Maple Square  bangalore,05-03-2020 21:40,0,1,0,0,0,12.8929578,77.6742451
ATZ Estrella bangalore,06-03-2020 18:40,0,1,0,0,0,12.9366872,77.7487363
NCN Crystal bangalore,28-02-2020 21:15,1,0,0,0,0,12.9750622,77.7588202
Asrithas Grand Living bangalore,05-03-2020 14:55,1,0,0,0,0,12.938386,77.617803
Vaswani Exquisite bangalore,05-03-2020 21:40,0,1,0,0,0,12.98979,77.7242795
G Corp The Icon bangalore,07-03-2020 20:20,0,1,0,0,0,13.0473654,77.6254839
Shanders Dwellington bangalore,28-02-2020 19:30,0,1,0,0,0,12.8476197,77.6881725
ATZ Estrella bangalore,05-03-2020 19:45,1,0,0,0,0,12.9366872,77.7487363
Greenwood Regency bangalore,03-03-2020 04:10,0,0,1,0,0,12.9138057,77.6833284
MDVR Byrathi Residency bangalore,01-03-2020 22:30,1,0,0,0,0,13.0536883,77.6572283
Silicon Valley bangalore,06-03-2020 15:20,0,1,0,0,0,12.9715987,77.5945627
Sanvi Sankalpam bangalore,07-03-2020 12:50,1,0,0,0,0,12.9697226,77.7713555
Unishire The Weave bangalore,01-03-2020 12:00,1,0,0,0,0,13.0569,77.623807
Greystone Mirror On Water bangalore,28-02-2020 21:15,1,0,0,0,0,12.8943569,77.6618761
K Raheja Jade Gardens bangalore,03-03-2020 22:50,0,1,0,0,0,13.204637,77.6506622
Bren Woods bangalore,05-03-2020 19:10,1,0,0,0,0,12.8617047,77.6832261
V K Krishna Gardenia bangalore,01-03-2020 17:20,0,1,0,0,0,12.8780046,77.5485323
Brigade Orchards Luxury Apartments bangalore,06-03-2020 18:40,0,1,0,0,0,13.230003,77.7236208
Desai Grandeur bangalore,28-02-2020 19:00,0,0,1,0,0,12.976704,77.7584705
SLV Central park bangalore,28-02-2020 22:10,0,1,0,0,0,13.0371494,77.7517183
Prestige Summer Fields bangalore,28-02-2020 01:00,0,0,1,0,0,12.9231407,77.6967126
Reliaable Residenza bangalore,01-03-2020 18:25,0,0,1,0,0,12.8656562,77.690064
Splendid Skylines bangalore,04-03-2020 20:00,0,0,1,0,0,12.8745128,77.6517073
Krish Eirianwen bangalore,07-03-2020 20:20,1,0,0,0,0,13.0183013,77.7252647
Navami Funique bangalore,06-03-2020 14:30,0,1,0,0,0,12.8695931,77.6546046
Sobha Indraprastha bangalore,04-03-2020 21:30,0,1,0,0,0,12.9811535,77.5634417
Trifecta Joli bangalore,05-03-2020 18:45,1,0,0,0,0,12.8921388,77.7095138
Purva City of Gold bangalore,07-03-2020 21:10,0,0,1,0,0,12.887104,77.5521255
Brigade Parkside West bangalore,06-03-2020 11:30,0,1,0,0,0,12.9026133,77.7018458
Total Environment Windmills Of Your Mind bangalore,01-03-2020 18:25,0,0,1,0,0,12.9828416,77.7218047
Aratt Amora bangalore,01-03-2020 14:20,1,0,0,0,0,12.7587473,77.6711502
Salarpuria Sattva Anugraha bangalore,03-03-2020 17:40,0,1,0,0,0,12.9827531,77.5186374
Prestige Jindal City bangalore,07-03-2020 16:00,0,1,0,0,0,13.0542876,77.4840424
Woodshire Emerson Park bangalore,01-03-2020 12:20,0,1,0,0,0,13.0350995,77.7520959
Eden and Serene at Brigade Cornerstone Utopia bangalore,03-03-2020 16:00,1,0,0,0,0,12.9344677,77.7439053
Dhanapriya Paradise bangalore,06-03-2020 18:40,0,1,0,0,0,12.9715987,77.5945627
Akruthi Spring Woods bangalore,04-03-2020 17:00,0,0,0,0,1,12.985451,77.4864
MBR Brickfield Shelters bangalore,03-03-2020 12:50,0,1,0,0,0,12.8124009,77.7342541
SLS Square bangalore,04-03-2020 14:30,0,1,0,0,0,12.9719967,77.7153684
Prestige Palms bangalore,04-03-2020 21:30,0,1,0,0,0,12.9805009,77.7435987
Avanti by Shriline bangalore,05-03-2020 03:30,0,0,1,0,0,12.7101547,77.7072491
The Advantage Raheja Pebble Bay bangalore,05-03-2020 21:00,0,0,1,0,0,12.9175193,77.6284075
Unishire The Weave bangalore,28-02-2020 19:30,0,1,0,0,0,13.0569,77.623807
Mantri Flora bangalore,03-03-2020 03:15,0,1,0,0,0,12.9183563,77.6650713
Krish Eirianwen bangalore,05-03-2020 06:15,0,1,0,0,0,13.0183013,77.7252647
Concorde Luxepolis bangalore,05-03-2020 18:45,1,0,0,0,0,12.9567983,77.567828
Godrej Aqua bangalore,04-03-2020 08:00,0,1,0,0,0,13.1461447,77.6376119
Wisteria at Brigade Meadows bangalore,04-03-2020 18:00,1,0,0,0,0,12.8150853,77.5067053
Hara Vijaya Heights bangalore,28-02-2020 17:00,0,1,0,0,0,12.8634786,77.526696
Sipani Wattle Grove bangalore,28-02-2020 10:15,0,1,0,0,0,12.940446,77.623403
Mahaveer Ranches bangalore,28-02-2020 22:10,0,1,0,0,0,12.8783657,77.6708668
Hita Malibu Rosita bangalore,06-03-2020 11:40,0,0,1,0,0,12.9417311,77.7510344
Embassy Boulevard bangalore,05-03-2020 14:00,0,1,0,0,0,13.1479839,77.6389992
TG Lakevista bangalore,03-03-2020 19:45,1,0,0,0,0,12.8734735,77.6343724
Basava Pride bangalore,04-03-2020 22:00,0,0,1,0,0,13.01401,77.717031
Mahaveer Celesse bangalore,01-03-2020 00:55,0,1,0,0,0,13.1500949,77.6179438
Vestaa Lushes bangalore,01-03-2020 17:20,0,1,0,0,0,12.8496595,77.7347463
Sekhar Olympus bangalore,01-03-2020 15:15,0,1,0,0,0,13.0311397,77.6579922
Valmark Orchard Square bangalore,04-03-2020 08:30,0,0,1,0,0,12.870642,77.5860474
Jeevan Pristine bangalore,28-02-2020 22:10,0,1,0,0,0,12.9715987,77.5945627
Disha Central Park bangalore,28-02-2020 22:10,0,1,0,0,0,12.9376923,77.713246
Orchid Whitefield bangalore,05-03-2020 00:45,0,0,1,0,0,12.9643023,77.7575018
Concorde Amber bangalore,28-02-2020 20:30,0,0,1,0,0,12.8948188,77.7030423
Jain Heights Grand West bangalore,07-03-2020 16:15,0,0,1,0,0,13.0171545,77.5504018
GM Global Techies Town Tower 01 A bangalore,28-02-2020 13:00,0,0,1,0,0,12.8227035,77.6608411
RR Roshan Platinum bangalore,01-03-2020 16:20,0,1,0,0,0,12.8840635,77.6056889
Ajmera Lugaano bangalore,28-02-2020 15:30,0,0,1,0,0,13.1097661,77.5587431
Aratt Cityscapes Rowhouse bangalore,01-03-2020 18:25,0,0,1,0,0,13.0611983,77.757579
G Corp The Icon Phase III bangalore,28-02-2020 22:30,0,1,0,0,0,13.0473654,77.6254839
Prestige Park View bangalore,28-02-2020 23:00,0,0,1,0,0,12.9852588,77.7518918
Klassik Benchmark bangalore,03-03-2020 20:10,1,0,0,0,0,12.8716449,77.5962133
Sanjana Supreme bangalore,05-03-2020 20:00,0,1,0,0,0,12.8821041,77.6198368
Sipani Jardin bangalore,28-02-2020 22:00,0,0,1,0,0,12.7780888,77.7296121
Pride Enchanta Phase I bangalore,06-03-2020 17:25,0,0,1,0,0,12.9478889,77.5353712
GM Infinite E City Town Phase II bangalore,01-03-2020 12:00,1,0,0,0,0,12.8192308,77.66407
Purva Coronation Square bangalore,07-03-2020 16:15,0,0,1,0,0,12.8953453,77.5795323
Hiren High Cliff bangalore,07-03-2020 16:00,0,1,0,0,0,12.9124433,77.6517185
Zonasha Elegance bangalore,04-03-2020 09:00,0,0,1,0,0,12.8988592,77.6682758
Hoysala Ace Phase II bangalore,04-03-2020 22:00,0,0,1,0,0,13.0663641,77.5869966
Sobha City Casa Paradiso bangalore,07-03-2020 12:50,1,0,0,0,0,13.0761452,77.6406964
Sobha Royal Pavilion bangalore,04-03-2020 17:00,0,0,0,0,1,12.8962858,77.702125
Odions The Woods of East Phase 2 bangalore,05-03-2020 23:00,0,0,1,0,0,12.8913922,77.6937237
Sumo Sonnet bangalore,05-03-2020 06:15,0,1,0,0,0,12.889868,77.6488791
SD Aashrita bangalore,28-02-2020 19:00,1,0,0,0,0,43.9695148,-99.9018131
CMRS Mulberry Mist bangalore,01-03-2020 22:30,1,0,0,0,0,12.9450837,77.7524506
Aswani Sunshine bangalore,05-03-2020 23:00,0,0,1,0,0,12.8350619,77.7735794
Gopalan Lake Front bangalore,01-03-2020 16:40,1,0,0,0,0,12.8377608,77.6764512
Sobha Ruby bangalore,05-03-2020 14:00,0,1,0,0,0,13.0446521,77.5000402
Bhartiya City Nikoo Homes II bangalore,07-03-2020 12:10,0,1,0,0,0,13.085357,77.644525
Aratt Cityscapes Villa bangalore,03-03-2020 11:20,0,1,0,0,0,13.0611983,77.757579
Vivansaa Blessings bangalore,04-03-2020 20:00,0,0,1,0,0,12.9124021,77.6387393
Banashree Arka Forest View bangalore,05-03-2020 23:10,0,1,0,0,0,12.7425352,77.6683509
Sumadhura Eden Garden bangalore,04-03-2020 21:30,0,1,0,0,0,13.0283684,77.7506927
Frontier Heights bangalore,28-02-2020 19:00,1,0,0,0,0,12.9055155,77.6756456
Kuteera Green Homes bangalore,03-03-2020 17:50,0,1,0,0,0,13.0301107,77.7620013
Bluejay Atmosphere bangalore,04-03-2020 13:40,0,1,0,0,0,13.026091,77.481328
Orchid Piccadilly bangalore,28-02-2020 10:15,0,1,0,0,0,13.0862364,77.6326754
Mana Foliage bangalore,06-03-2020 01:35,0,0,1,0,0,12.834063,77.7426949
Opera Spring Leaf bangalore,28-02-2020 15:30,0,0,1,0,0,12.8983834,77.6183237
NVT Mystic Garden bangalore,01-03-2020 17:30,0,1,0,0,0,12.7924016,77.7792542
Indio Classic bangalore,28-02-2020 15:40,0,0,1,0,0,12.9715987,77.5945627
Hiranandani Upscale Bannerghatta bangalore,01-03-2020 17:20,0,1,0,0,0,12.876606,77.610831
SSVR Fairy Bells bangalore,04-03-2020 08:00,0,1,0,0,0,13.0713565,77.5851817
Bren Palms bangalore,04-03-2020 09:00,0,0,1,0,0,12.8911424,77.6447601
Legacy Salvador bangalore,07-03-2020 21:10,0,0,1,0,0,13.1201364,77.581033
SNN Raj Serenity Phase II bangalore,07-03-2020 19:55,0,0,0,1,0,12.852932,77.678469
Brigade Gardenia bangalore,05-03-2020 21:40,0,1,0,0,0,12.8879764,77.5781273
Kolte Patil I TOWERS Exente bangalore,7/3/2020 17.28,0,0,1,0,0,12.849516,77.669984
Salarpuria Sattva Greenage bangalore,05-03-2020 14:55,1,0,0,0,0,12.9024372,77.6313115
KVG Grandeur bangalore,03-03-2020 17:40,0,1,0,0,0,13.0274574,77.6900306
Trifecta Joli bangalore,05-03-2020 19:45,1,0,0,0,0,12.8921388,77.7095138
Prestige Kensington Gardens bangalore,04-03-2020 22:00,0,0,1,0,0,13.051404,77.5369911
Ma Sarada Casa Estrella bangalore,01-03-2020 11:45,0,0,1,0,0,12.7964534,77.6864041
Casagrand Esmeralda bangalore,28-02-2020 15:40,0,0,1,0,0,12.8356242,77.7668846
Alembic Urban Forest bangalore,01-03-2020 22:35,0,1,0,0,0,12.9853338,77.7609677
Vasundra Krishnashreya bangalore,07-03-2020 20:20,1,0,0,0,0,12.9797094,77.4993114
Hoysala Ace Phase II bangalore,07-03-2020 20:40,1,0,0,0,0,13.0663641,77.5869966
Pavani Sarovar Phase II bangalore,05-03-2020 23:10,0,1,0,0,0,12.9726354,77.7340972
Prabhavathi Comforts bangalore,28-02-2020 19:20,0,0,1,0,0,12.8864112,77.6290643
B&B Opulent Spire bangalore,05-03-2020 14:55,1,0,0,0,0,12.9216975,77.5997916
DNR Atmosphere bangalore,03-03-2020 23:40,0,0,0,1,0,12.958045,77.7390325
Unishire Belvedere Premia bangalore,05-03-2020 23:10,0,1,0,0,0,13.0726436,77.6183587
Sobha HRC Pristine bangalore,05-03-2020 14:55,1,0,0,0,0,13.0679382,77.6059904
Salarpuria Sattva Casa Irene bangalore,07-03-2020 18:05,1,0,0,0,0,12.8646922,77.5911405
Purva Whitehall bangalore,28-02-2020 19:00,0,0,1,0,0,12.9170738,77.6722151
Klassik Benchmark bangalore,01-03-2020 16:40,1,0,0,0,0,12.8716449,77.5962133
Prestige Kew Gardens bangalore,28-02-2020 22:00,0,0,1,0,0,12.9481617,77.6809412
Purva Coronation Square bangalore,28-02-2020 13:30,0,0,0,1,0,12.8953453,77.5795323
Purva City of Gold bangalore,01-03-2020 14:20,1,0,0,0,0,12.887104,77.5521255
Total Environment In That Quiet Earth bangalore,03-03-2020 14:10,0,0,0,1,0,13.0527303,77.677491
Provident Harmony bangalore,04-03-2020 22:00,0,0,1,0,0,13.080659,77.625441
Pavani Sarovar Phase II bangalore,28-02-2020 10:15,0,1,0,0,0,12.9726354,77.7340972
Urban Eco Space bangalore,07-03-2020 00:35,0,0,1,0,0,12.8318138,77.798139
Assetz Marq bangalore,28-02-2020 21:45,0,0,1,0,0,13.0244172,77.7619875
SJR Hamilton Homes bangalore,04-03-2020 09:00,0,0,1,0,0,12.8654578,77.6976643
Nitesh Cape Cod bangalore,07-03-2020 18:05,1,0,0,0,0,12.9224054,77.6750123
Soni Tranquil bangalore,06-03-2020 20:30,0,0,1,0,0,12.9001488,77.5926141
Vaswani Claremont bangalore,07-03-2020 13:00,0,0,1,0,0,12.9485069,77.7173176
Sobha Royal Pavilion bangalore,07-03-2020 18:05,1,0,0,0,0,12.8962858,77.702125
Orchid Greens bangalore,03-03-2020 22:50,0,0,1,0,0,13.0879221,77.6554441
Pavilion Villas at Brigade Orchards bangalore,28-02-2020 19:00,1,0,0,0,0,13.237063,77.72428
Taapasi Rosevista bangalore,05-03-2020 19:10,0,1,0,0,0,13.1251357,77.6450215
Manar Pureearth bangalore,03-03-2020 13:40,0,1,0,0,0,12.8667734,77.7872346
Sunland Serene Hills bangalore,05-03-2020 18:15,0,0,1,0,0,12.796947,77.531457
Plama Heights bangalore,01-03-2020 15:15,0,0,0,1,0,13.0334447,77.6374762
Jeevanadi Sampoorna bangalore,04-03-2020 18:30,0,0,1,0,0,13.0643327,77.5697312
DSR White Waters Phase II bangalore,07-03-2020 12:20,0,1,0,0,0,12.9174004,77.7168506
Akshaya Regalia bangalore,28-02-2020 03:00,0,0,1,0,0,12.897131,77.5264058
NBR Trifecta bangalore,07-03-2020 13:35,0,0,0,1,0,12.8381526,77.8432415
SLV Lakshmi Narayana Nilaya bangalore,05-03-2020 23:00,0,0,1,0,0,12.997227,77.621871
Prestige Pine Wood bangalore,28-02-2020 15:50,0,0,1,0,0,12.9312272,77.6345867
Klassik Landmark bangalore,28-02-2020 08:00,0,0,0,1,0,12.8956917,77.6775754
SBI New Bangalore bangalore,28-02-2020 23:50,0,0,1,0,0,12.8762164,77.6164271
Bhartiya City Nikoo Homes bangalore,05-03-2020 19:10,0,1,0,0,0,13.085357,77.644525
Venkat Windsor East bangalore,06-03-2020 15:30,0,0,1,0,0,13.0375925,77.7082434
Camellia Pride bangalore,28-02-2020 18:00,0,1,0,0,0,12.9334857,77.7485129
Prestige Kew Gardens bangalore,01-03-2020 14:20,1,0,0,0,0,12.9481617,77.6809412
Whitestone Rosario bangalore,05-03-2020 19:10,0,1,0,0,0,13.013394,77.735935
Orbis BVS Avenues bangalore,28-02-2020 19:00,0,0,1,0,0,12.9582656,77.7466265
Prestige Song Of The South bangalore,07-03-2020 23:45,0,1,0,0,0,12.8620814,77.6137471
Prestige Leela Residences bangalore,28-02-2020 14:10,0,0,1,0,0,12.9604699,77.6500106
Prestige Monte Carlo bangalore,05-03-2020 14:00,0,1,0,0,0,13.1152916,77.5774514
Century Artizan bangalore,03-03-2020 03:15,0,1,0,0,0,13.129355,77.595041
Bhartiya City Leela Residences bangalore,03-03-2020 16:00,1,0,0,0,0,13.084283,77.642781
Deccan Habitat bangalore,01-03-2020 14:30,1,0,0,0,0,13.029479,77.545092
Total Environment In That Quiet Earth bangalore,05-03-2020 13:30,0,0,1,0,0,13.0527303,77.677491
Prestige Gulmohar bangalore,28-02-2020 19:30,0,1,0,0,0,13.0288528,77.6649757
Sri Garnet Park bangalore,06-03-2020 01:35,0,0,1,0,0,12.9918197,77.7194328
Candeur Rise bangalore,05-03-2020 14:00,0,1,0,0,0,12.9969877,77.6899549
Sobha Morzaria Grandeur bangalore,28-02-2020 19:05,0,0,1,0,0,12.9339158,77.6019266
ASN Galaxy bangalore,01-03-2020 18:35,0,0,1,0,0,13.0292141,77.661057
Swathi Magnolia bangalore,04-03-2020 21:30,0,1,0,0,0,12.9715987,77.5945627
CMRS Mulberry Mist bangalore,28-02-2020 11:55,0,1,0,0,0,12.9450837,77.7524506
Prestige Glenwood bangalore,04-03-2020 13:40,0,1,0,0,0,13.0767319,77.7341204
Alpine Fiesta bangalore,03-03-2020 15:30,1,0,0,0,0,12.996111,77.7203321
Golden Leaf Luxury Apartment bangalore,01-03-2020 22:30,1,0,0,0,0,12.915528,77.6254919
Sobha Marvella bangalore,05-03-2020 12:10,1,0,0,0,0,12.9267833,77.6726791
Purva Highland bangalore,03-03-2020 22:50,0,0,1,0,0,12.8539676,77.5446017
Valmark Cityville bangalore,01-03-2020 19:50,0,0,0,1,0,12.8626587,77.604309
KMB La Palazzo bangalore,04-03-2020 09:00,0,0,1,0,0,12.9196722,77.6659963
Vaishnavi Terraces bangalore,28-02-2020 01:00,0,0,1,0,0,12.904254,77.599514
Myhna Maple bangalore,04-03-2020 13:30,0,0,1,0,0,12.934066,77.741577
Vaishnavi Nakshatra bangalore,05-03-2020 19:05,1,0,0,0,0,13.0254031,77.5491776
KMB La Palazzo bangalore,05-03-2020 22:20,0,1,0,0,0,12.9196722,77.6659963
V K Krishna Gardenia bangalore,28-02-2020 22:00,0,0,1,0,0,12.8780046,77.5485323
Puravankara Elita Promenade bangalore,01-03-2020 16:05,0,0,0,1,0,12.8505636,77.6019434
Motzkin Park Terrace bangalore,04-03-2020 22:00,0,0,1,0,0,12.8277163,77.7776498
JK Suchiraa Villas bangalore,01-03-2020 17:30,0,1,0,0,0,13.0694552,77.5173107
Chariot Windsor Castel bangalore,28-02-2020 19:05,0,0,1,0,0,12.8595114,77.7685616
Ozone Urbana Avenue bangalore,05-03-2020 15:40,0,1,0,0,0,12.9757272,77.6158504
Total Environment Pursuit of A Radical Rhapsody bangalore,03-03-2020 22:50,0,1,0,0,0,12.99143,77.7205139
Whitestone Florenso bangalore,04-03-2020 14:30,0,1,0,0,0,13.059249,77.762768
Pride Enchanta Phase II bangalore,01-03-2020 15:25,0,1,0,0,0,12.9478889,77.5353712
Vaishnavi Nakshatra bangalore,05-03-2020 21:40,0,1,0,0,0,13.0254031,77.5491776
Rohan Akriti bangalore,28-02-2020 15:50,1,0,0,0,0,12.8904448,77.538187
Ittina Neela bangalore,01-03-2020 14:20,1,0,0,0,0,12.831385,77.700493
DSR Waterscape bangalore,07-03-2020 19:05,0,1,0,0,0,13.0452085,77.6794603
SKS Garden bangalore,04-03-2020 22:00,0,0,1,0,0,12.9715987,77.5945627
Avani Gardens bangalore,28-02-2020 19:50,0,0,1,0,0,13.0860725,77.6064885
Mahendra Aarna bangalore,28-02-2020 11:55,0,1,0,0,0,12.8348265,77.6910718
Habitat Iluminar bangalore,04-03-2020 20:00,0,0,1,0,0,12.9155329,77.4933195
Sunil Orchid bangalore,05-03-2020 03:30,0,0,1,0,0,12.9715987,77.5945627
Klassik Landmark bangalore,28-02-2020 13:00,0,0,1,0,0,12.8956917,77.6775754
Chamundi Amber Woods bangalore,28-02-2020 22:10,0,1,0,0,0,12.8763746,77.5304509
Gnana Bhoomi bangalore,04-03-2020 17:00,0,0,0,0,1,13.2805947,77.6198082
SNN Raj Lakeview bangalore,07-03-2020 12:50,1,0,0,0,0,12.9039732,77.6083714
Vaswani Walnut Creek bangalore,05-03-2020 12:10,1,0,0,0,0,12.8935672,77.6938473
Total Environment In That Quiet Earth bangalore,03-03-2020 20:05,1,0,0,0,0,13.0527303,77.677491
Brigade 7 Gardens bangalore,07-03-2020 18:00,0,0,1,0,0,12.895314,77.5302144
Legacy Saviero bangalore,28-02-2020 16:00,0,0,1,0,0,13.0239094,77.6618851
Mana Candela bangalore,06-03-2020 20:30,0,0,1,0,0,12.8915171,77.710097
ARK Cloud City bangalore,06-03-2020 11:40,0,0,1,0,0,12.9842196,77.7634093
Arge Urban Bloom bangalore,01-03-2020 14:30,1,0,0,0,0,13.0259697,77.5329519
Prestige Royal Garden 2 bangalore,03-03-2020 03:15,0,1,0,0,0,13.1395085,77.5706395
Purva Coronation Square bangalore,05-03-2020 13:30,0,0,1,0,0,12.8953453,77.5795323
Peace Rhythm bangalore,03-03-2020 16:10,0,1,0,0,0,12.9500313,77.4978003
Arna Meadows bangalore,03-03-2020 16:10,0,1,0,0,0,12.8627811,77.6030904
Skanda Avani C99 bangalore,06-03-2020 20:30,0,0,1,0,0,12.90952,77.724401
Fire Luxur The Empyrean Phase II bangalore,28-02-2020 13:30,0,0,0,1,0,12.9048299,77.8677685
ASN Galaxy bangalore,07-03-2020 21:20,0,0,1,0,0,13.0292141,77.661057
Aratt Cityscapes Villa bangalore,01-03-2020 12:00,1,0,0,0,0,13.0611983,77.757579
Sashank Advaith bangalore,01-03-2020 12:05,1,0,0,0,0,12.8917332,77.6816863
Citrus Florence bangalore,01-03-2020 15:20,0,0,0,1,0,12.9715987,77.5945627
PSR Krish Kamal bangalore,05-03-2020 18:45,1,0,0,0,0,12.8404406,77.6435767
Trinco Nandanavana bangalore,03-03-2020 16:00,1,0,0,0,0,12.9147753,77.6041391
Purva Zenium bangalore,01-03-2020 15:30,0,0,0,1,0,13.1460926,77.6389257
Sipani Wattle Grove bangalore,28-02-2020 15:50,0,0,0,1,0,12.940446,77.623403
Global Golden Pearl bangalore,05-03-2020 07:30,0,1,0,0,0,12.787143,77.777111
NCN Platina bangalore,28-02-2020 19:30,0,1,0,0,0,12.9373858,77.7374738
Grand Gandharva bangalore,05-03-2020 19:45,1,0,0,0,0,12.9320964,77.5102245
Brinda Imperial Phase I bangalore,28-02-2020 22:10,0,0,1,0,0,12.753406,77.649038
VSR Rejoice bangalore,06-03-2020 21:15,0,0,1,0,0,12.9715987,77.5945627
Patel Smondoville bangalore,28-02-2020 21:45,0,0,1,0,0,12.8219467,77.6577455
TooGoodHomes by Provident bangalore,03-03-2020 20:05,1,0,0,0,0,13.0831589,77.6194189
Brigade Parkside East bangalore,28-02-2020 03:00,0,0,1,0,0,12.9026133,77.7018458
RMZ Latitude bangalore,05-03-2020 14:25,0,1,0,0,0,13.0563101,77.5951032
Prestige Park View bangalore,04-03-2020 23:05,0,0,1,0,0,12.9852588,77.7518918
Shriram Chirping Woods Apartment bangalore,28-02-2020 21:15,1,0,0,0,0,12.9090034,77.6688901
Saideep Hulas bangalore,03-03-2020 19:45,1,0,0,0,0,13.0416462,77.7436449
Thrive Muses Abode bangalore,01-03-2020 12:00,1,0,0,0,0,13.0261844,77.6266968
Celebrity Serenity bangalore,03-03-2020 21:20,0,0,1,0,0,12.795757,77.650302
GAG Classic Amrutha bangalore,28-02-2020 15:40,0,0,1,0,0,12.8750421,77.5439551
RR Signature bangalore,04-03-2020 13:40,0,1,0,0,0,13.0800374,77.6337759
Skylark Royaume bangalore,03-03-2020 03:15,0,1,0,0,0,12.8661023,77.665878
Brindavan Palms bangalore,28-02-2020 17:00,0,1,0,0,0,12.8730823,77.6671062
VRR Nest bangalore,04-03-2020 13:30,0,0,1,0,0,12.8639934,77.6629466
Sri Bhagwan Elite bangalore,07-03-2020 20:40,0,1,0,0,0,12.8730771,77.6441754
SNN Raj Serenity Phase II bangalore,28-02-2020 22:10,0,1,0,0,0,12.852932,77.678469
Shriram Greenfield Phase 2 bangalore,05-03-2020 23:00,0,0,1,0,0,13.0708496,77.7512724
Motzkin Park Terrace bangalore,05-03-2020 20:00,0,1,0,0,0,12.8277163,77.7776498
SVS Trend Square Precioso bangalore,07-03-2020 00:35,0,0,1,0,0,13.0345488,77.6674155
RMZ Latitude bangalore,04-03-2020 13:30,0,0,1,0,0,13.0563101,77.5951032
Godrej Platinum bangalore,01-03-2020 12:00,1,0,0,0,0,13.0547182,77.5937366
Trinco Nandanavana bangalore,07-03-2020 10:35,0,1,0,0,0,12.9147753,77.6041391
SNN Raj Lakeview bangalore,07-03-2020 13:00,0,0,1,0,0,12.9039732,77.6083714
Greenwood Regency bangalore,28-02-2020 10:15,0,1,0,0,0,12.9138057,77.6833284
Geown Oasis bangalore,06-03-2020 14:30,0,1,0,0,0,12.8826228,77.7831451
Mahaveer Turquoise bangalore,07-03-2020 12:10,0,1,0,0,0,12.8672756,77.6441932
Axis Antara bangalore,28-02-2020 22:10,0,1,0,0,0,12.8688053,77.6180494
SLV Diamond bangalore,28-02-2020 13:00,0,0,1,0,0,13.0375445,77.6358926
Total Environment Windmills Of Your Mind bangalore,07-03-2020 14:50,0,1,0,0,0,12.9828416,77.7218047
Aryan Golden Arena bangalore,28-02-2020 00:00,1,0,0,0,0,12.806845,77.7825336
Purva Whitehall bangalore,28-02-2020 19:00,0,0,1,0,0,12.9170738,77.6722151
Brigade Buena Vista Phase I bangalore,03-03-2020 12:50,0,1,0,0,0,13.0639183,77.7397329
Aratt Premier bangalore,05-03-2020 06:15,0,1,0,0,0,12.9813098,77.7095717
TATA The Promont bangalore,03-03-2020 16:00,1,0,0,0,0,12.9208104,77.5367614
Odions The Woods of East Phase 1 bangalore,04-03-2020 21:30,0,1,0,0,0,12.8913922,77.6937237
The County Address bangalore,05-03-2020 21:00,0,0,1,0,0,12.8807869,77.7875912
ND Around The Mangoes bangalore,28-02-2020 20:30,0,0,1,0,0,12.9099636,77.6045095
Essem18 Poetree bangalore,05-03-2020 06:15,0,1,0,0,0,12.9066586,77.6795801
Banashree Arka Forest View bangalore,28-02-2020 00:00,1,0,0,0,0,12.7425352,77.6683509
Ozone Polestar bangalore,03-03-2020 14:10,0,0,0,1,0,13.0385196,77.6181119
V Venture Essence bangalore,28-02-2020 20:30,0,0,1,0,0,12.8921457,77.5902232
Assetz Lifestyle bangalore,07-03-2020 00:35,0,0,1,0,0,12.8853283,77.7047401
Gopalan Lake Front bangalore,06-03-2020 21:15,0,0,1,0,0,12.8377608,77.6764512
VBHC Vaibhava bangalore,05-03-2020 14:25,0,1,0,0,0,12.756369,77.7024257
Sipani Bliss 2 bangalore,03-03-2020 11:20,0,1,0,0,0,12.7808199,77.7239959
Ajmera Nucleus bangalore,06-03-2020 15:30,0,0,1,0,0,12.851016,77.6807465
G Corp The Icon Phase III bangalore,05-03-2020 14:00,0,1,0,0,0,13.0473654,77.6254839
Subhodaya Luxuria bangalore,04-03-2020 18:30,0,0,1,0,0,12.9372251,77.7045745
Atco Sapphire bangalore,05-03-2020 14:25,0,1,0,0,0,12.8606884,77.7767483
Prabhavathi Comforts bangalore,28-02-2020 19:45,1,0,0,0,0,12.8864112,77.6290643
DNR Atmosphere bangalore,28-02-2020 17:00,0,1,0,0,0,12.958045,77.7390325
Bren Champions Square bangalore,07-03-2020 20:40,0,1,0,0,0,12.901324,77.7085945
Sriven Rag Meridian bangalore,05-03-2020 19:10,1,0,0,0,0,12.8183059,77.6898768
Sobha Morzaria Grandeur bangalore,06-03-2020 14:30,0,1,0,0,0,12.9339158,77.6019266
Ruchira Aarna Homes bangalore,03-03-2020 04:10,0,0,1,0,0,12.9647206,77.7552794
Marvel Sequoia bangalore,06-03-2020 11:40,0,0,1,0,0,12.9853863,77.7591065
Unishire Belvedere Premia bangalore,04-03-2020 19:05,0,1,0,0,0,13.0726436,77.6183587
Prestige Sunrise Park Norwood bangalore,01-03-2020 18:35,1,0,0,0,0,12.8345846,77.6635615
Adithya Tranquil bangalore,01-03-2020 12:00,1,0,0,0,0,13.1207272,77.6080072
Marvel Sequoia bangalore,05-03-2020 19:30,0,0,1,0,0,12.9853863,77.7591065
Sumadhura Nandanam bangalore,05-03-2020 23:10,0,1,0,0,0,12.9905248,77.7139077
IDEB Springfields bangalore,28-02-2020 15:00,0,0,1,0,0,12.9181948,77.6695175
SKS Garden bangalore,06-03-2020 20:45,0,0,0,1,0,12.9715987,77.5945627
Desai Grandeur bangalore,01-03-2020 16:05,0,0,0,1,0,12.976704,77.7584705
Park Cubix bangalore,28-02-2020 00:00,1,0,0,0,0,13.2418908,77.720995
Amrutha Value bangalore,05-03-2020 06:15,0,1,0,0,0,12.9706326,77.7367999
Vivansaa Blessings bangalore,01-03-2020 00:55,0,1,0,0,0,12.9124021,77.6387393
Celebrity Serenity bangalore,01-03-2020 22:30,1,0,0,0,0,12.795757,77.650302
Ozone Evergreens bangalore,07-03-2020 14:50,0,1,0,0,0,12.9088641,77.6628913
DS Max Status bangalore,05-03-2020 06:15,0,1,0,0,0,13.131781,77.5661959
Pioneer Sun Blossom bangalore,01-03-2020 22:30,1,0,0,0,0,12.8348947,77.648506
Kumari Amaranthine bangalore,04-03-2020 21:00,0,1,0,0,0,12.9176952,77.6973403
Expart The Wisdom Tree bangalore,03-03-2020 15:30,1,0,0,0,0,13.0610879,77.6397579
DivyaSree 77 Place bangalore,28-02-2020 21:15,1,0,0,0,0,12.9486621,77.6932524
Gempark Address bangalore,28-02-2020 08:40,0,1,0,0,0,12.8699879,77.8103632
Sobha City Casa Paradiso bangalore,01-03-2020 22:35,0,1,0,0,0,13.0761452,77.6406964
NYK Metro Urbano bangalore,05-03-2020 14:55,1,0,0,0,0,12.8919021,77.6376131
Apex Crystal bangalore,28-02-2020 03:30,0,0,1,0,0,12.9715987,77.5945627
Vajram Esteva bangalore,07-03-2020 21:10,0,0,1,0,0,12.9306574,77.6864719
Rohan Jharoka bangalore,05-03-2020 14:00,0,1,0,0,0,12.9482601,77.6765682
V Venture Essence bangalore,03-03-2020 19:45,1,0,0,0,0,12.8921457,77.5902232
Definer Kingdom bangalore,05-03-2020 03:30,0,0,1,0,0,13.073524,77.7446716
Richmond Lake View bangalore,28-02-2020 21:00,1,0,0,0,0,12.7995085,77.6563883
Godrej Reflections bangalore,28-02-2020 20:30,0,0,1,0,0,12.9118913,77.668165
SLS Square bangalore,03-03-2020 22:50,0,0,1,0,0,12.9719967,77.7153684
Purva Skywood bangalore,03-03-2020 17:50,0,1,0,0,0,12.8944929,77.6607174
Prestige Kenilworth bangalore,01-03-2020 15:35,0,1,0,0,0,12.9902606,77.5961311
Ozone WF48 bangalore,07-03-2020 19:05,0,1,0,0,0,12.9954655,77.6948322
Skanda Nirvana bangalore,01-03-2020 15:15,1,0,0,0,0,12.9340795,77.7059496
Sobha Clovelly bangalore,05-03-2020 13:30,0,0,1,0,0,12.911386,77.5559079
Sobha Lifestyle Legacy bangalore,28-02-2020 20:30,0,0,1,0,0,13.231919,77.674463
LGCL Pueblo bangalore,03-03-2020 22:50,0,1,0,0,0,12.8666049,77.6672102
Incor Carmel Heights bangalore,03-03-2020 17:50,0,1,0,0,0,12.9608801,77.7477855
Mantri Flora bangalore,28-02-2020 21:15,1,0,0,0,0,12.9183563,77.6650713
Raja Aristos bangalore,28-02-2020 17:00,0,1,0,0,0,12.8639286,77.5981177
Dharanis Prakruthi Park bangalore,28-02-2020 00:00,1,0,0,0,0,12.8461858,77.8275989
Esteem Emblem bangalore,06-03-2020 17:25,0,0,1,0,0,12.8382576,77.6846614
Prestige Park Square bangalore,28-02-2020 12:00,1,0,0,0,0,12.8469172,77.5878452
SV Lakshmi Nivas bangalore,06-03-2020 13:45,0,1,0,0,0,13.0395202,77.6621751
IDEB Springfields bangalore,06-03-2020 20:45,0,0,0,1,0,12.9181948,77.6695175
GRC Brundavan bangalore,03-03-2020 16:10,0,1,0,0,0,12.9393493,77.5190858
Karsten Palm Groves bangalore,28-02-2020 01:30,1,0,0,0,0,12.7741873,77.6961678
Mahaveer Tranquil bangalore,01-03-2020 12:20,0,1,0,0,0,12.9679039,77.7328695
Griha Unnathi bangalore,03-03-2020 14:10,0,0,0,1,0,13.0590857,77.6590355
SBI New Bangalore bangalore,28-02-2020 16:00,0,0,1,0,0,12.8762164,77.6164271
SS Vrudhi bangalore,28-02-2020 23:50,0,0,1,0,0,12.8623542,77.5286683
Ds Max Sherwood bangalore,01-03-2020 22:35,0,1,0,0,0,12.9220588,77.7231568
Sona Grandeur bangalore,01-03-2020 19:50,0,0,0,1,0,12.8647018,77.5956349
Reliaable Dollar Colony bangalore,03-03-2020 03:15,0,1,0,0,0,12.8681733,77.6951194
Iconest 3 bangalore,28-02-2020 15:30,0,0,1,0,0,12.8011407,77.6796032
Prestige Fontaine Bleau bangalore,03-03-2020 22:50,0,1,0,0,0,12.9757829,77.7417992
Ezzy Corinth bangalore,03-03-2020 23:40,0,0,0,1,0,13.0657555,77.6515444
Mahaveer Riviera bangalore,28-02-2020 00:00,1,0,0,0,0,12.8930968,77.5883631
Shanders Dwellington bangalore,28-02-2020 10:15,0,1,0,0,0,12.8476197,77.6881725
Peninsula Prakruthi bangalore,05-03-2020 23:10,0,1,0,0,0,12.8732821,77.787371
Trifecta Joli bangalore,03-01-2020 16:30,1,0,0,0,0,12.8921388,77.7095138
Midwest Elita bangalore,05-03-2020 14:25,0,1,0,0,0,13.1215868,77.6205622
Ajmera Green Acres bangalore,28-02-2020 14:10,0,0,1,0,0,12.8679098,77.5935277
Purva Zenium bangalore,01-03-2020 16:40,1,0,0,0,0,13.1460926,77.6389257
Mantri Alpyne bangalore,28-02-2020 08:40,0,1,0,0,0,12.9042533,77.5274646
Godrej Air bangalore,01-03-2020 00:55,0,1,0,0,0,12.9886656,77.7118501
Sumo Sonnet bangalore,28-02-2020 01:30,1,0,0,0,0,12.889868,77.6488791
Embassy Edge bangalore,01-03-2020 18:25,0,0,1,0,0,13.2459154,77.7145355
Supertech Micasa bangalore,7/3/2020 16.42 ,0,0,1,0,0,13.097949,77.644494
LVS Gardenia Phase 1 bangalore,01-03-2020 12:05,1,0,0,0,0,13.0345318,77.7024472
Ozone Urbana bangalore,01-03-2020 16:20,0,1,0,0,0,13.2032646,77.6635981
The Presidential Tower bangalore,07-03-2020 22:55,0,1,0,0,0,13.0265663,77.5451712
MBR Suave bangalore,01-03-2020 01:45,1,0,0,0,0,13.0073616,77.7506585
SVS Trend Square Precioso bangalore,03-03-2020 04:10,0,0,1,0,0,13.0345488,77.6674155
Purva Westend bangalore,01-03-2020 17:30,0,1,0,0,0,12.89072,77.6383746
E Golden Abode bangalore,07-03-2020 17:00,0,0,1,0,0,12.8511396,77.6735544
Vertex Venezia bangalore,04-03-2020 09:00,0,0,1,0,0,12.9274179,77.7389044
SLV Diamond bangalore,28-02-2020 20:00,0,0,1,0,0,13.0375445,77.6358926
Garuda Vista bangalore,01-03-2020 11:45,0,0,1,0,0,12.9852446,77.6867056
Hiranandani Evita bangalore,07-03-2020 21:10,0,0,1,0,0,12.8760537,77.6121874
Godrej Eternity Life Plus bangalore,05-03-2020 14:55,1,0,0,0,0,12.8561767,77.5418038
Nitesh Rio bangalore,05-03-2020 13:15,0,0,1,0,0,12.8631579,77.535788
MDVR Byrathi Residency bangalore,01-03-2020 22:30,1,0,0,0,0,13.0536883,77.6572283
Nakshatra Township bangalore,05-03-2020 00:45,0,0,1,0,0,12.7304474,77.7033552
Prestige Kensington Gardens bangalore,28-02-2020 20:30,0,0,1,0,0,13.051404,77.5369911
Chamundi Amber Woods bangalore,04-03-2020 18:30,0,0,1,0,0,12.8763746,77.5304509
Prestige Spencer Heights bangalore,04-03-2020 21:00,0,1,0,0,0,12.9956569,77.6104792
Century Infiniti bangalore,01-03-2020 17:20,0,1,0,0,0,12.8975268,77.6772502
DLR Sabarmati Enclave bangalore,28-02-2020 03:30,0,0,1,0,0,13.0258664,77.6803306
Mantri Espana bangalore,05-03-2020 19:05,1,0,0,0,0,12.9344706,77.6835063
Sobha Daffodil bangalore,28-02-2020 17:00,0,0,1,0,0,12.9013076,77.653417
Fortius Under The Sun bangalore,05-03-2020 14:00,0,1,0,0,0,13.2364997,77.6789061
Kolte Patil I TOWERS Exente bangalore,01-03-2020 18:25,0,0,1,0,0,12.849516,77.669984
DivyaSree 77 Place bangalore,03-03-2020 04:10,0,0,1,0,0,12.9486621,77.6932524
SNN Raj GreenBay bangalore,28-02-2020 21:45,0,0,1,0,0,12.852932,77.678469
Midtown Raaga bangalore,01-03-2020 14:30,1,0,0,0,0,13.0045009,77.7300865
Unishire Spacio bangalore,01-03-2020 22:35,0,1,0,0,0,12.8849319,77.6048938
M1 Terra Alegria bangalore,28-02-2020 19:05,0,0,1,0,0,13.1042593,77.7748724
CMRS Palm Hills bangalore,28-02-2020 15:50,0,0,1,0,0,13.3526756,77.7221923
JK Suchiraa Villas bangalore,04-03-2020 22:00,0,0,1,0,0,13.0694552,77.5173107
Mythri Arteor bangalore,05-03-2020 10:00,0,1,0,0,0,12.8874178,77.6294089
Canary Woods bangalore,28-02-2020 08:00,0,0,0,1,0,12.9715987,77.5945627
Subhams Antique City bangalore,05-03-2020 19:45,1,0,0,0,0,13.0468846,77.7523614
Pride Crosswinds Villa Plots bangalore,03-03-2020 16:00,1,0,0,0,0,12.780214,77.603303
Peninsula Heights bangalore,07-03-2020 12:50,1,0,0,0,0,12.915558,77.592652
Sai Vrushabadri Towers bangalore,03-03-2020 21:20,0,0,1,0,0,12.9885109,77.7817547
Balaji Ashirvaad Elite bangalore,28-02-2020 19:50,0,0,1,0,0,12.8547931,77.5976667
TATA The Promont bangalore,01-03-2020 15:30,0,0,0,1,0,12.9208104,77.5367614
UKN Esperanza bangalore,06-03-2020 13:45,0,1,0,0,0,12.9525107,77.7206956
Legacy Vivienda bangalore,05-03-2020 21:00,0,0,1,0,0,13.1857708,77.6603103
Salarpuria Sattva Cadenza bangalore,28-02-2020 22:00,0,0,0,1,0,12.889441,77.6402211
Hiranandani Queensgate bangalore,03-03-2020 16:00,1,0,0,0,0,12.8740261,77.6100293
Rohan Jharoka bangalore,28-02-2020 19:45,0,0,0,1,0,12.9482601,77.6765682
Vaishnavi Oasis bangalore,01-03-2020 12:20,0,1,0,0,0,12.8735596,77.5638325
Sri Garnet Park bangalore,28-02-2020 19:30,0,1,0,0,0,12.9918197,77.7194328
Vishwapriya Vertical Garden bangalore,28-02-2020 19:05,0,0,1,0,0,12.9385302,77.5231804
Bavisha Urban Homes bangalore,06-03-2020 20:30,0,0,1,0,0,12.8594994,77.765354
Axis Antara bangalore,28-02-2020 08:00,0,0,0,1,0,12.8688053,77.6180494
Fortius Under The Sun bangalore,28-02-2020 10:15,0,1,0,0,0,13.2364997,77.6789061
Bren Northern Lights bangalore,05-03-2020 19:10,1,0,0,0,0,13.094024,77.6091061
Assetz Leaves & Lives bangalore,07-03-2020 00:35,0,0,1,0,0,12.8864479,77.7051471
The Presidential Tower bangalore,28-02-2020 20:00,0,0,1,0,0,13.0265663,77.5451712
Chaitrashree Royale bangalore,06-03-2020 01:35,0,0,1,0,0,12.9389997,77.5180225
Sobha Tulip bangalore,03-03-2020 19:45,1,0,0,0,0,12.8984206,77.5855194
Sona Vistaas bangalore,04-03-2020 09:00,0,0,1,0,0,12.8811223,77.6195792
Bijith Kripa bangalore,04-03-2020 21:30,0,1,0,0,0,13.257391,77.7088976
Prestige Falcon City bangalore,03-03-2020 15:30,1,0,0,0,0,12.885663,77.563775
Spad Classic Nakshatra Nestilo bangalore,01-03-2020 19:50,0,0,0,1,0,12.9640102,77.7499354
BRR Sai Sankalp bangalore,28-02-2020 11:55,0,1,0,0,0,12.9976477,77.7598434
Emmanuel Heights bangalore,05-03-2020 12:10,1,0,0,0,0,12.8921796,77.6738289
Nitesh Forest Hills bangalore,07-03-2020 20:40,0,1,0,0,0,13.0159262,77.7626956
Cattleya Sriven Nest bangalore,07-03-2020 12:10,0,1,0,0,0,12.9372072,77.7491799
Brigade Metropolis bangalore,05-03-2020 10:00,0,1,0,0,0,12.9914639,77.7029976
Sowmya Shailam bangalore,28-02-2020 23:00,0,0,1,0,0,12.9437506,77.5737599
Adonis Plots bangalore,01-03-2020 17:30,0,1,0,0,0,13.2320575,77.7402329
Rsun Sushmitham bangalore,28-02-2020 10:30,0,1,0,0,0,12.9890574,77.7659146
SMR Vinay Estella bangalore,01-03-2020 16:40,1,0,0,0,0,13.0840921,77.5413269
Icon Sanctuary bangalore,06-03-2020 10:10,0,0,1,0,0,12.8554461,77.809677
Zonasha Elegance bangalore,04-03-2020 18:00,1,0,0,0,0,12.8988592,77.6682758
Countryside Raindance bangalore,01-03-2020 22:35,0,1,0,0,0,12.832239,77.6595798
Desai Grandeur bangalore,07-03-2020 20:20,0,1,0,0,0,12.976704,77.7584705
Concorde Tech Turf bangalore,06-03-2020 13:45,0,1,0,0,0,12.8318141,77.6551811
Maarq Vista bangalore,05-03-2020 03:30,0,0,1,0,0,13.410396,77.7150976
Orbis BVS Avenues bangalore,28-02-2020 22:00,0,0,0,1,0,12.9582656,77.7466265
Prestige Park View bangalore,07-03-2020 18:00,0,0,1,0,0,12.9852588,77.7518918
DLF Woodland Heights bangalore,07-03-2020 19:05,0,1,0,0,0,12.7828926,77.6581565
The Manya Magna Ville bangalore,01-03-2020 14:30,1,0,0,0,0,12.8560454,77.6491728
PSR Krish Kamal bangalore,28-02-2020 23:50,0,0,1,0,0,12.8404406,77.6435767
Sipani Wattle Grove bangalore,28-02-2020 10:15,0,1,0,0,0,12.940446,77.623403
SJR Residency bangalore,05-03-2020 14:00,0,1,0,0,0,12.9276275,77.6891907
Century Indus Phase II bangalore,01-03-2020 14:30,1,0,0,0,0,12.9112501,77.5113871
LGCL Pueblo bangalore,05-03-2020 07:30,0,1,0,0,0,12.8666049,77.6672102
Unicon North Brooks 46 bangalore,01-03-2020 22:30,1,0,0,0,0,13.1042012,77.5561585
Keerthi Royal Palms bangalore,07-03-2020 19:55,0,0,0,1,0,12.8622252,77.6605814
Evershine Greenwood bangalore,28-02-2020 00:00,1,0,0,0,0,12.8610024,77.7805416
Svamitva Sylvia CIty bangalore,06-03-2020 20:45,0,0,0,1,0,13.0530435,77.7619136
Greystone Mirror On Water bangalore,28-02-2020 18:00,0,1,0,0,0,12.8943569,77.6618761
Desai Grandeur bangalore,03-03-2020 20:10,1,0,0,0,0,12.976704,77.7584705
Ruchira Aarna Homes bangalore,28-02-2020 22:30,0,1,0,0,0,12.9647206,77.7552794
VARS Parkwood bangalore,06-03-2020 17:25,0,0,1,0,0,12.9156691,77.6909634
MN Guru Gokulam bangalore,28-02-2020 15:00,0,0,1,0,0,13.0927842,77.6324403
Smart Homz Blue Bells bangalore,01-03-2020 15:25,0,1,0,0,0,12.7851117,77.7770002
Pride Enchanta Phase II bangalore,01-03-2020 08:55,1,0,0,0,0,12.9478889,77.5353712
Sobha HRC Pristine bangalore,05-03-2020 20:00,0,1,0,0,0,13.0679382,77.6059904
Vivansaa Baalsam bangalore,01-03-2020 01:45,1,0,0,0,0,12.9124021,77.6387393
Hiren High Cliff bangalore,05-03-2020 23:10,0,1,0,0,0,12.9124433,77.6517185
Sai Charan Hill View bangalore,03-03-2020 19:45,1,0,0,0,0,12.8904203,77.5148337
Esteem Emblem bangalore,28-02-2020 21:00,1,0,0,0,0,12.8382576,77.6846614
Ahad Euphoria bangalore,04-03-2020 18:30,0,0,1,0,0,12.8964286,77.7080676
Shri Balaji Sarovar bangalore,05-03-2020 13:30,0,0,1,0,0,12.9769223,77.7333818
Vedant Vayun bangalore,28-02-2020 22:00,0,0,1,0,0,12.8787673,77.6376676
Sumo Leaves bangalore,03-03-2020 22:50,0,0,1,0,0,12.878726,77.5444685
Century Central bangalore,01-03-2020 18:35,0,0,1,0,0,12.8917718,77.565457
Emmanuel Heights bangalore,03-01-2020 16:30,1,0,0,0,0,12.8921796,77.6738289
Aakruthi Aura bangalore,28-02-2020 21:45,0,0,1,0,0,12.9650697,77.7510877
Nitesh Rio bangalore,05-03-2020 19:10,1,0,0,0,0,12.8631579,77.535788
Adarsh Palm Retreat bangalore,01-03-2020 18:35,0,0,1,0,0,12.9234947,77.6851069
The Manya Magna Ville bangalore,07-03-2020 20:40,0,1,0,0,0,12.8560454,77.6491728
Sipani Santa Monica bangalore,03-03-2020 14:10,0,0,0,1,0,12.940446,77.623403
Windsor Troika bangalore,28-02-2020 15:00,0,0,1,0,0,12.8656865,77.6194878
Zonasha Paradiso bangalore,28-02-2020 22:00,0,0,1,0,0,12.9754771,77.7038489
Axis Antara bangalore,04-03-2020 18:00,1,0,0,0,0,12.8688053,77.6180494
Raja Sannidhi bangalore,05-03-2020 18:15,0,0,1,0,0,12.8491125,77.6078187
Beverly Hills bangalore,07-03-2020 20:20,0,1,0,0,0,12.8912793,77.5392322
Godrej Eternity bangalore,05-03-2020 21:00,0,0,1,0,0,12.8570477,77.5407321
Shri Balaji Sarovar bangalore,03-03-2020 17:40,0,1,0,0,0,12.9769223,77.7333818
DSMAX STARRY bangalore,28-02-2020 13:30,0,0,0,1,0,12.8288136,77.6511943
Urban Eco Space bangalore,03-03-2020 22:50,0,0,1,0,0,12.8318138,77.798139
ND Around The Mangoes bangalore,28-02-2020 01:00,0,0,1,0,0,12.9099636,77.6045095
SSVR Iris bangalore,28-02-2020 23:50,0,0,1,0,0,12.9401171,77.7336308
Thrive Muses Abode bangalore,07-03-2020 14:00,1,0,0,0,0,13.0261844,77.6266968
Sobha Daisy bangalore,04-03-2020 22:00,0,0,1,0,0,12.9282006,77.6680634
Golden Grand bangalore,05-03-2020 21:00,0,0,1,0,0,13.0268946,77.5464606
Amrutha Value bangalore,01-03-2020 12:00,1,0,0,0,0,12.9706326,77.7367999
NVT Mystic Garden bangalore,05-03-2020 19:10,0,1,0,0,0,12.7924016,77.7792542
SJR Residency bangalore,07-03-2020 19:55,0,0,0,1,0,12.9276275,77.6891907
Citrus Aries Lakeview bangalore,06-03-2020 11:40,0,0,1,0,0,13.077676,77.6104505
Provident Harmony bangalore,7/3/2020 17.28,0,0,1,0,0,13.080659,77.625441
